[{"code_insee": "02001", "nom": "Abbécourt", "cp": 2300, "departement": 2, "lat": 49.5997, "lon": 3.1824, "population": 518, "dist_lambersart_km": 147.2, "temps_lambersart_min": 107.0, "littoral": "non", "prix_m2": 1238.0, "nb_ventes": 35.0, "distance_sante_km": 2.79, "sante_nom": "CH CHAUNY", "sante_categorie": "Centre Hospitalier (C.H.)", "statut": "aucun"}, {"code_insee": "02002", "nom": "Achery", "cp": 2800, "departement": 2, "lat": 49.6935, "lon": 3.3974, "population": 584, "dist_lambersart_km": 144.2, "temps_lambersart_min": 100.0, "littoral": "non", "prix_m2": 1126.0, "nb_ventes": 38.0, "distance_sante_km": 4.3, "sante_nom": "CH LA FÈRE", "sante_categorie": "Centre Hospitalier (C.H.)", "statut": "aucun"}, {"code_insee": "02003", "nom": "Acy", "cp": 2200, "departement": 2, "lat": 49.3476, "lon": 3.4188, "population": 1004, "dist_lambersart_km": 195.3, "temps_lambersart_min": 138.0, "littoral": "non", "prix_m2": 1619.0, "nb_ventes": 50.0, "distance_sante_km": 6.54, "sante_nom": "CH SOISSONS", "sante_categorie": "Centre Hospitalier (C.H.)", "statut": "aucun"}, {"code_insee": "02004", "nom": "Agnicourt-et-Séchelles", "cp": 2340, "departement": 2, "lat": 49.7172, "lon": 3.9637, "population": 189, "dist_lambersart_km": 185.3, "temps_lambersart_min": 134.0, "littoral": "non", "prix_m2": 938.0, "nb_ventes": 10.0, "distance_sante_km": 13.54, "sante_nom": "CH VERVINS", "sante_categorie": "Centre Hospitalier (C.H.)", "statut": "aucun"}, {"code_insee": "02005", "nom": "Aguilcourt", "cp": 2190, "departement": 2, "lat": 49.3953, "lon": 3.9663, "population": 417, "dist_lambersart_km": 191.9, "temps_lambersart_min": 133.0, "littoral": "non", "prix_m2": 2115.0, "nb_ventes": 26.0, "distance_sante_km": 15.66, "sante_nom": "HOPITAL SEBASTOPOL CHU REIMS", "sante_categorie": "Centre Hospitalier Régional (C.H.R.)", "statut": "aucun"}, {"code_insee": "02006", "nom": "Aisonville-et-Bernoville", "cp": 2110, "departement": 2, "lat": 49.9313, "lon": 3.5121, "population": 259, "dist_lambersart_km": 122.8, "temps_lambersart_min": 103.0, "littoral": "non", "prix_m2": 707.0, "nb_ventes": 10.0, "distance_sante_km": 9.78, "sante_nom": "CH GUISE", "sante_categorie": "Centre Hospitalier (C.H.)", "statut": "aucun"}, {"code_insee": "02007", "nom": "Aizelles", "cp": 2820, "departement": 2, "lat": 49.4865, "lon": 3.8211, "population": 118, "dist_lambersart_km": 176.0, "temps_lambersart_min": 125.0, "littoral": "non", "prix_m2": 1953.0, "nb_ventes": 7.0, "distance_sante_km": 17.45, "sante_nom": "CH LAON", "sante_categorie": "Centre Hospitalier (C.H.)", "statut": "aucun"}, {"code_insee": "02008", "nom": "Aizy-Jouy", "cp": 2370, "departement": 2, "lat": 49.4372, "lon": 3.5128, "population": 306, "dist_lambersart_km": 181.0, "temps_lambersart_min": 126.0, "littoral": "non", "prix_m2": 1482.0, "nb_ventes": 18.0, "distance_sante_km": 14.21, "sante_nom": "SSR CH LAON", "sante_categorie": "Centre Hospitalier (C.H.)", "statut": "aucun"}, {"code_insee": "02009", "nom": "Alaincourt", "cp": 2240, "departement": 2, "lat": 49.7681, "lon": 3.3692, "population": 517, "dist_lambersart_km": 130.4, "temps_lambersart_min": 96.0, "littoral": "non", "prix_m2": 1464.0, "nb_ventes": 18.0, "distance_sante_km": 11.68, "sante_nom": "CH LA FÈRE", "sante_categorie": "Centre Hospitalier (C.H.)", "statut": "aucun"}, {"code_insee": "02010", "nom": "Allemant", "cp": 2320, "departement": 2, "lat": 49.4639, "lon": 3.4591, "population": 163, "dist_lambersart_km": 183.9, "temps_lambersart_min": 127.0, "littoral": "non", "prix_m2": 1112.0, "nb_ventes": 7.0, "distance_sante_km": 13.65, "sante_nom": "CH SOISSONS", "sante_categorie": "Centre Hospitalier (C.H.)", "statut": "aucun"}, {"code_insee": "02011", "nom": "Ambleny", "cp": 2290, "departement": 2, "lat": 49.3741, "lon": 3.1681, "population": 1205, "dist_lambersart_km": 175.9, "temps_lambersart_min": 136.0, "littoral": "non", "prix_m2": 1841.0, "nb_ventes": 68.0, "distance_sante_km": 12.13, "sante_nom": "CH SOISSONS", "sante_categorie": "Centre Hospitalier (C.H.)", "statut": "aucun"}, {"code_insee": "02012", "nom": "Ambrief", "cp": 2200, "departement": 2, "lat": 49.3226, "lon": 3.4058, "population": 79, "dist_lambersart_km": 183.5, "temps_lambersart_min": 144.0, "littoral": "non", "prix_m2": 1438.0, "nb_ventes": 5.0, "distance_sante_km": 7.38, "sante_nom": "CH SOISSONS", "sante_categorie": "Centre Hospitalier (C.H.)", "statut": "aucun"}, {"code_insee": "02013", "nom": "Amifontaine", "cp": 2190, "departement": 2, "lat": 49.4977, "lon": 3.9218, "population": 391, "dist_lambersart_km": 197.3, "temps_lambersart_min": 143.0, "littoral": "non", "prix_m2": 1465.0, "nb_ventes": 15.0, "distance_sante_km": 23.65, "sante_nom": "CH LAON", "sante_categorie": "Centre Hospitalier (C.H.)", "statut": "aucun"}, {"code_insee": "02014", "nom": "Amigny-Rouy", "cp": 2700, "departement": 2, "lat": 49.6111, "lon": 3.3059, "population": 707, "dist_lambersart_km": 145.7, "temps_lambersart_min": 102.0, "littoral": "non", "prix_m2": 1467.0, "nb_ventes": 38.0, "distance_sante_km": 7.01, "sante_nom": "CH LA FÈRE", "sante_categorie": "Centre Hospitalier (C.H.)", "statut": "aucun"}, {"code_insee": "02015", "nom": "Ancienville", "cp": 2600, "departement": 2, "lat": 49.2196, "lon": 3.2065, "population": 78, "dist_lambersart_km": 199.7, "temps_lambersart_min": 152.0, "littoral": "non", "prix_m2": null, "nb_ventes": 4.0, "distance_sante_km": 19.25, "sante_nom": "CH SOISSONS", "sante_categorie": "Centre Hospitalier (C.H.)", "statut": "aucun"}, {"code_insee": "02016", "nom": "Andelain", "cp": 2800, "departement": 2, "lat": 49.6428, "lon": 3.3686, "population": 212, "dist_lambersart_km": 146.1, "temps_lambersart_min": 101.0, "littoral": "non", "prix_m2": 1331.0, "nb_ventes": 10.0, "distance_sante_km": 2.35, "sante_nom": "CH LA FÈRE", "sante_categorie": "Centre Hospitalier (C.H.)", "statut": "aucun"}, {"code_insee": "02017", "nom": "Anguilcourt-le-Sart", "cp": 2800, "departement": 2, "lat": 49.6971, "lon": 3.424, "population": 274, "dist_lambersart_km": 142.0, "temps_lambersart_min": 96.0, "littoral": "non", "prix_m2": 841.0, "nb_ventes": 19.0, "distance_sante_km": 5.95, "sante_nom": "CH LA FÈRE", "sante_categorie": "Centre Hospitalier (C.H.)", "statut": "aucun"}, {"code_insee": "02018", "nom": "Anizy-le-Grand", "cp": 2320, "departement": 2, "lat": 49.5159, "lon": 3.4426, "population": 2472, "dist_lambersart_km": 165.3, "temps_lambersart_min": 124.0, "littoral": "non", "prix_m2": 1403.0, "nb_ventes": 129.0, "distance_sante_km": 9.49, "sante_nom": "SSR JACQUES FICHEUX SAINT-GOBAIN", "sante_categorie": "Centre Hospitalier (C.H.)", "statut": "aucun"}, {"code_insee": "02019", "nom": "Annois", "cp": 2480, "departement": 2, "lat": 49.7122, "lon": 3.1761, "population": 349, "dist_lambersart_km": 136.9, "temps_lambersart_min": 99.0, "littoral": "non", "prix_m2": 1339.0, "nb_ventes": 14.0, "distance_sante_km": 7.41, "sante_nom": "CH HAM", "sante_categorie": "Centre Hospitalier (C.H.)", "statut": "aucun"}, {"code_insee": "02020", "nom": "Any-Martin-Rieux", "cp": 2500, "departement": 2, "lat": 49.8851, "lon": 4.219, "population": 456, "dist_lambersart_km": 149.6, "temps_lambersart_min": 135.0, "littoral": "non", "prix_m2": 1125.0, "nb_ventes": 41.0, "distance_sante_km": 11.4, "sante_nom": "CH HIRSON", "sante_categorie": "Centre Hospitalier (C.H.)", "statut": "aucun"}, {"code_insee": "02021", "nom": "Archon", "cp": 2360, "departement": 2, "lat": 49.7444, "lon": 4.1176, "population": 76, "dist_lambersart_km": 200.4, "temps_lambersart_min": 151.0, "littoral": "non", "prix_m2": 1040.0, "nb_ventes": 10.0, "distance_sante_km": 18.34, "sante_nom": "CH VERVINS", "sante_categorie": "Centre Hospitalier (C.H.)", "statut": "aucun"}, {"code_insee": "02022", "nom": "Arcy-Sainte-Restitue", "cp": 2130, "departement": 2, "lat": 49.2557, "lon": 3.4776, "population": 396, "dist_lambersart_km": 193.1, "temps_lambersart_min": 151.0, "littoral": "non", "prix_m2": 1560.0, "nb_ventes": 38.0, "distance_sante_km": 15.61, "sante_nom": "CENTRE HOSPITALIER DE FISMES", "sante_categorie": "Centre Hospitalier (C.H.)", "statut": "aucun"}, {"code_insee": "02023", "nom": "Armentières-sur-Ourcq", "cp": 2210, "departement": 2, "lat": 49.1731, "lon": 3.3916, "population": 96, "dist_lambersart_km": 201.4, "temps_lambersart_min": 158.0, "littoral": "non", "prix_m2": 900.0, "nb_ventes": 12.0, "distance_sante_km": 13.68, "sante_nom": "CH CHÂTEAU-THIERRY", "sante_categorie": "Centre Hospitalier (C.H.)", "statut": "aucun"}, {"code_insee": "02024", "nom": "Arrancy", "cp": 2860, "departement": 2, "lat": 49.4985, "lon": 3.7647, "population": 45, "dist_lambersart_km": 171.5, "temps_lambersart_min": 119.0, "littoral": "non", "prix_m2": null, "nb_ventes": 1.0, "distance_sante_km": 13.27, "sante_nom": "CH LAON", "sante_categorie": "Centre Hospitalier (C.H.)", "statut": "aucun"}, {"code_insee": "02025", "nom": "Artemps", "cp": 2480, "departement": 2, "lat": 49.7623, "lon": 3.196, "population": 361, "dist_lambersart_km": 131.3, "temps_lambersart_min": 95.0, "littoral": "non", "prix_m2": 1463.0, "nb_ventes": 20.0, "distance_sante_km": 8.32, "sante_nom": "CH HAM", "sante_categorie": "Centre Hospitalier (C.H.)", "statut": "aucun"}, {"code_insee": "02027", "nom": "Assis-sur-Serre", "cp": 2270, "departement": 2, "lat": 49.6788, "lon": 3.5547, "population": 209, "dist_lambersart_km": 145.2, "temps_lambersart_min": 102.0, "littoral": "non", "prix_m2": 1121.0, "nb_ventes": 19.0, "distance_sante_km": 13.21, "sante_nom": "SSR JACQUES FICHEUX SAINT-GOBAIN", "sante_categorie": "Centre Hospitalier (C.H.)", "statut": "aucun"}, {"code_insee": "02028", "nom": "Athies-sous-Laon", "cp": 2840, "departement": 2, "lat": 49.5754, "lon": 3.6905, "population": 2578, "dist_lambersart_km": 160.0, "temps_lambersart_min": 111.0, "littoral": "non", "prix_m2": 1474.0, "nb_ventes": 140.0, "distance_sante_km": 5.9, "sante_nom": "CH LAON", "sante_categorie": "Centre Hospitalier (C.H.)", "statut": "aucun"}, {"code_insee": "02029", "nom": "Attilly", "cp": 2490, "departement": 2, "lat": 49.8557, "lon": 3.1533, "population": 337, "dist_lambersart_km": 117.4, "temps_lambersart_min": 85.0, "littoral": "non", "prix_m2": 1552.0, "nb_ventes": 17.0, "distance_sante_km": 8.06, "sante_nom": "CENTRE PSYCHOTHÉRAPIE CH ST QUENTIN", "sante_categorie": "Centre Hospitalier (C.H.)", "statut": "aucun"}, {"code_insee": "02030", "nom": "Aubencheul-aux-Bois", "cp": 2420, "departement": 2, "lat": 50.0248, "lon": 3.2614, "population": 238, "dist_lambersart_km": 96.0, "temps_lambersart_min": 71.0, "littoral": "non", "prix_m2": 1065.0, "nb_ventes": 17.0, "distance_sante_km": 15.81, "sante_nom": "CH CAMBRAI", "sante_categorie": "Centre Hospitalier (C.H.)", "statut": "aucun"}, {"code_insee": "02031", "nom": "Aubenton", "cp": 2500, "departement": 2, "lat": 49.8254, "lon": 4.1928, "population": 658, "dist_lambersart_km": 151.8, "temps_lambersart_min": 140.0, "littoral": "non", "prix_m2": 865.0, "nb_ventes": 40.0, "distance_sante_km": 14.01, "sante_nom": "CH HIRSON", "sante_categorie": "Centre Hospitalier (C.H.)", "statut": "aucun"}, {"code_insee": "02032", "nom": "Aubigny-aux-Kaisnes", "cp": 2590, "departement": 2, "lat": 49.7724, "lon": 3.1167, "population": 231, "dist_lambersart_km": 127.9, "temps_lambersart_min": 94.0, "littoral": "non", "prix_m2": 1173.0, "nb_ventes": 14.0, "distance_sante_km": 4.03, "sante_nom": "CH HAM", "sante_categorie": "Centre Hospitalier (C.H.)", "statut": "aucun"}, {"code_insee": "02033", "nom": "Aubigny-en-Laonnois", "cp": 2820, "departement": 2, "lat": 49.495, "lon": 3.7921, "population": 102, "dist_lambersart_km": 173.4, "temps_lambersart_min": 120.0, "littoral": "non", "prix_m2": null, "nb_ventes": 3.0, "distance_sante_km": 15.16, "sante_nom": "CH LAON", "sante_categorie": "Centre Hospitalier (C.H.)", "statut": "aucun"}, {"code_insee": "02034", "nom": "Audignicourt", "cp": 2300, "departement": 2, "lat": 49.4779, "lon": 3.1268, "population": 104, "dist_lambersart_km": 163.7, "temps_lambersart_min": 122.0, "littoral": "non", "prix_m2": 1250.0, "nb_ventes": 7.0, "distance_sante_km": 15.18, "sante_nom": "CH CHICN NOYON", "sante_categorie": "Centre Hospitalier (C.H.)", "statut": "aucun"}, {"code_insee": "02035", "nom": "Audigny", "cp": 2120, "departement": 2, "lat": 49.8651, "lon": 3.6314, "population": 273, "dist_lambersart_km": 119.3, "temps_lambersart_min": 111.0, "littoral": "non", "prix_m2": 913.0, "nb_ventes": 15.0, "distance_sante_km": 4.24, "sante_nom": "CH GUISE", "sante_categorie": "Centre Hospitalier (C.H.)", "statut": "aucun"}, {"code_insee": "02036", "nom": "Augy", "cp": 2220, "departement": 2, "lat": 49.3405, "lon": 3.5117, "population": 72, "dist_lambersart_km": 193.9, "temps_lambersart_min": 142.0, "littoral": "non", "prix_m2": null, "nb_ventes": 3.0, "distance_sante_km": 12.69, "sante_nom": "CENTRE HOSPITALIER DE FISMES", "sante_categorie": "Centre Hospitalier (C.H.)", "statut": "aucun"}, {"code_insee": "02037", "nom": "Aulnois-sous-Laon", "cp": 2000, "departement": 2, "lat": 49.6213, "lon": 3.6111, "population": 1348, "dist_lambersart_km": 161.2, "temps_lambersart_min": 108.0, "littoral": "non", "prix_m2": 1350.0, "nb_ventes": 61.0, "distance_sante_km": 6.4, "sante_nom": "CH LAON", "sante_categorie": "Centre Hospitalier (C.H.)", "statut": "aucun"}, {"code_insee": "02038", "nom": "Les Autels", "cp": 2360, "departement": 2, "lat": 49.7603, "lon": 4.224, "population": 62, "dist_lambersart_km": 162.2, "temps_lambersart_min": 151.0, "littoral": "non", "prix_m2": 1144.0, "nb_ventes": 5.0, "distance_sante_km": 21.27, "sante_nom": "CH HIRSON", "sante_categorie": "Centre Hospitalier (C.H.)", "statut": "aucun"}, {"code_insee": "02039", "nom": "Autremencourt", "cp": 2250, "departement": 2, "lat": 49.7042, "lon": 3.7931, "population": 176, "dist_lambersart_km": 170.5, "temps_lambersart_min": 119.0, "littoral": "non", "prix_m2": 1229.0, "nb_ventes": 7.0, "distance_sante_km": 16.32, "sante_nom": "CH VERVINS", "sante_categorie": "Centre Hospitalier (C.H.)", "statut": "aucun"}, {"code_insee": "02040", "nom": "Autreppes", "cp": 2580, "departement": 2, "lat": 49.8963, "lon": 3.8571, "population": 175, "dist_lambersart_km": 127.6, "temps_lambersart_min": 122.0, "littoral": "non", "prix_m2": 1106.0, "nb_ventes": 10.0, "distance_sante_km": 7.85, "sante_nom": "CH VERVINS", "sante_categorie": "Centre Hospitalier (C.H.)", "statut": "aucun"}, {"code_insee": "02041", "nom": "Autreville", "cp": 2300, "departement": 2, "lat": 49.5878, "lon": 3.2378, "population": 777, "dist_lambersart_km": 148.2, "temps_lambersart_min": 106.0, "littoral": "non", "prix_m2": 1582.0, "nb_ventes": 53.0, "distance_sante_km": 4.17, "sante_nom": "CH CHAUNY", "sante_categorie": "Centre Hospitalier (C.H.)", "statut": "aucun"}, {"code_insee": "02042", "nom": "Azy-sur-Marne", "cp": 2400, "departement": 2, "lat": 49.0061, "lon": 3.3575, "population": 369, "dist_lambersart_km": 264.1, "temps_lambersart_min": 175.0, "littoral": "non", "prix_m2": 1900.0, "nb_ventes": 19.0, "distance_sante_km": 6.17, "sante_nom": "CH CHÂTEAU-THIERRY", "sante_categorie": "Centre Hospitalier (C.H.)", "statut": "aucun"}, {"code_insee": "02043", "nom": "Bagneux", "cp": 2290, "departement": 2, "lat": 49.4595, "lon": 3.2776, "population": 62, "dist_lambersart_km": 166.0, "temps_lambersart_min": 124.0, "littoral": "non", "prix_m2": null, "nb_ventes": 1.0, "distance_sante_km": 10.71, "sante_nom": "CH SOISSONS", "sante_categorie": "Centre Hospitalier (C.H.)", "statut": "aucun"}, {"code_insee": "02044", "nom": "Bancigny", "cp": 2140, "departement": 2, "lat": 49.7997, "lon": 4.0383, "population": 26, "dist_lambersart_km": 142.7, "temps_lambersart_min": 141.0, "littoral": "non", "prix_m2": 850.0, "nb_ventes": 9.0, "distance_sante_km": 10.43, "sante_nom": "CH VERVINS", "sante_categorie": "Centre Hospitalier (C.H.)", "statut": "aucun"}, {"code_insee": "02046", "nom": "Barenton-Bugny", "cp": 2000, "departement": 2, "lat": 49.6217, "lon": 3.6612, "population": 555, "dist_lambersart_km": 156.2, "temps_lambersart_min": 104.0, "littoral": "non", "prix_m2": 1391.0, "nb_ventes": 20.0, "distance_sante_km": 7.4, "sante_nom": "CH LAON", "sante_categorie": "Centre Hospitalier (C.H.)", "statut": "aucun"}, {"code_insee": "02047", "nom": "Barenton-Cel", "cp": 2000, "departement": 2, "lat": 49.6466, "lon": 3.6448, "population": 108, "dist_lambersart_km": 159.6, "temps_lambersart_min": 108.0, "littoral": "non", "prix_m2": null, "nb_ventes": 2.0, "distance_sante_km": 9.54, "sante_nom": "CH LAON", "sante_categorie": "Centre Hospitalier (C.H.)", "statut": "aucun"}, {"code_insee": "02048", "nom": "Barenton-sur-Serre", "cp": 2270, "departement": 2, "lat": 49.6682, "lon": 3.6929, "population": 130, "dist_lambersart_km": 161.2, "temps_lambersart_min": 111.0, "littoral": "non", "prix_m2": 1160.0, "nb_ventes": 6.0, "distance_sante_km": 13.04, "sante_nom": "CH LAON", "sante_categorie": "Centre Hospitalier (C.H.)", "statut": "aucun"}, {"code_insee": "02049", "nom": "Barisis-aux-Bois", "cp": 2700, "departement": 2, "lat": 49.5814, "lon": 3.332, "population": 752, "dist_lambersart_km": 150.3, "temps_lambersart_min": 108.0, "littoral": "non", "prix_m2": 1556.0, "nb_ventes": 49.0, "distance_sante_km": 6.57, "sante_nom": "SSR JACQUES FICHEUX SAINT-GOBAIN", "sante_categorie": "Centre Hospitalier (C.H.)", "statut": "aucun"}, {"code_insee": "02050", "nom": "Barzy-en-Thiérache", "cp": 2170, "departement": 2, "lat": 50.0378, "lon": 3.7522, "population": 316, "dist_lambersart_km": 102.9, "temps_lambersart_min": 95.0, "littoral": "non", "prix_m2": 1221.0, "nb_ventes": 17.0, "distance_sante_km": 3.43, "sante_nom": "CH LE NOUVION-EN-THIÉRACHE", "sante_categorie": "Centre Hospitalier (C.H.)", "statut": "aucun"}, {"code_insee": "02051", "nom": "Barzy-sur-Marne", "cp": 2850, "departement": 2, "lat": 49.09, "lon": 3.5586, "population": 380, "dist_lambersart_km": 250.7, "temps_lambersart_min": 184.0, "littoral": "non", "prix_m2": 1573.0, "nb_ventes": 33.0, "distance_sante_km": 11.7, "sante_nom": "CH CHÂTEAU-THIERRY", "sante_categorie": "Centre Hospitalier (C.H.)", "statut": "aucun"}, {"code_insee": "02052", "nom": "Bassoles-Aulers", "cp": 2380, "departement": 2, "lat": 49.5328, "lon": 3.3828, "population": 131, "dist_lambersart_km": 163.2, "temps_lambersart_min": 123.0, "littoral": "non", "prix_m2": 1103.0, "nb_ventes": 8.0, "distance_sante_km": 7.88, "sante_nom": "SSR JACQUES FICHEUX SAINT-GOBAIN", "sante_categorie": "Centre Hospitalier (C.H.)", "statut": "aucun"}, {"code_insee": "02053", "nom": "Vallées en Champagne", "cp": 2330, "departement": 2, "lat": 49.0009, "lon": 3.6203, "population": 599, "dist_lambersart_km": 249.2, "temps_lambersart_min": 171.0, "littoral": "non", "prix_m2": 1250.0, "nb_ventes": 45.0, "distance_sante_km": 14.79, "sante_nom": "HOPITAL LOCAL DE MONTMIRAIL", "sante_categorie": "Centre hospitalier, ex Hôpital local", "statut": "aucun"}, {"code_insee": "02054", "nom": "Bazoches-et-Saint-Thibaut", "cp": 2220, "departement": 2, "lat": 49.2991, "lon": 3.6184, "population": 516, "dist_lambersart_km": 201.7, "temps_lambersart_min": 150.0, "littoral": "non", "prix_m2": 1938.0, "nb_ventes": 24.0, "distance_sante_km": 4.45, "sante_nom": "CENTRE HOSPITALIER DE FISMES", "sante_categorie": "Centre Hospitalier (C.H.)", "statut": "aucun"}, {"code_insee": "02055", "nom": "Beaumé", "cp": 2500, "departement": 2, "lat": 49.8187, "lon": 4.1529, "population": 82, "dist_lambersart_km": 151.7, "temps_lambersart_min": 144.0, "littoral": "non", "prix_m2": 944.0, "nb_ventes": 5.0, "distance_sante_km": 13.11, "sante_nom": "CH HIRSON", "sante_categorie": "Centre Hospitalier (C.H.)", "statut": "aucun"}, {"code_insee": "02056", "nom": "Beaumont-en-Beine", "cp": 2300, "departement": 2, "lat": 49.6876, "lon": 3.1317, "population": 168, "dist_lambersart_km": 142.4, "temps_lambersart_min": 105.0, "littoral": "non", "prix_m2": 1182.0, "nb_ventes": 13.0, "distance_sante_km": 7.0, "sante_nom": "CH HAM", "sante_categorie": "Centre Hospitalier (C.H.)", "statut": "aucun"}, {"code_insee": "02057", "nom": "Beaurevoir", "cp": 2110, "departement": 2, "lat": 49.9965, "lon": 3.332, "population": 1281, "dist_lambersart_km": 103.3, "temps_lambersart_min": 82.0, "littoral": "non", "prix_m2": 833.0, "nb_ventes": 59.0, "distance_sante_km": 15.54, "sante_nom": "HJ PSY ENFANT PETITS CYGNES CH CAMBRAI", "sante_categorie": "Centre Hospitalier (C.H.)", "statut": "aucun"}, {"code_insee": "02058", "nom": "Beaurieux", "cp": 2160, "departement": 2, "lat": 49.4029, "lon": 3.7594, "population": 794, "dist_lambersart_km": 187.6, "temps_lambersart_min": 145.0, "littoral": "non", "prix_m2": 1453.0, "nb_ventes": 40.0, "distance_sante_km": 12.23, "sante_nom": "CENTRE HOSPITALIER DE FISMES", "sante_categorie": "Centre Hospitalier (C.H.)", "statut": "aucun"}, {"code_insee": "02059", "nom": "Beautor", "cp": 2800, "departement": 2, "lat": 49.6472, "lon": 3.3361, "population": 2579, "dist_lambersart_km": 141.3, "temps_lambersart_min": 104.0, "littoral": "non", "prix_m2": 1000.0, "nb_ventes": 122.0, "distance_sante_km": 2.5, "sante_nom": "CH LA FÈRE", "sante_categorie": "Centre Hospitalier (C.H.)", "statut": "aucun"}, {"code_insee": "02060", "nom": "Beauvois-en-Vermandois", "cp": 2590, "departement": 2, "lat": 49.8331, "lon": 3.1023, "population": 263, "dist_lambersart_km": 113.3, "temps_lambersart_min": 90.0, "littoral": "non", "prix_m2": 1290.0, "nb_ventes": 9.0, "distance_sante_km": 10.13, "sante_nom": "CH HAM", "sante_categorie": "Centre Hospitalier (C.H.)", "statut": "aucun"}, {"code_insee": "02061", "nom": "Becquigny", "cp": 2110, "departement": 2, "lat": 50.0143, "lon": 3.458, "population": 268, "dist_lambersart_km": 98.4, "temps_lambersart_min": 93.0, "littoral": "non", "prix_m2": 963.0, "nb_ventes": 13.0, "distance_sante_km": 11.54, "sante_nom": "CH LE CATEAU", "sante_categorie": "Centre Hospitalier (C.H.)", "statut": "aucun"}, {"code_insee": "02062", "nom": "Belleau", "cp": 2400, "departement": 2, "lat": 49.0803, "lon": 3.3036, "population": 131, "dist_lambersart_km": 262.8, "temps_lambersart_min": 171.0, "littoral": "non", "prix_m2": 1171.0, "nb_ventes": 6.0, "distance_sante_km": 8.29, "sante_nom": "CH CHÂTEAU-THIERRY", "sante_categorie": "Centre Hospitalier (C.H.)", "statut": "aucun"}, {"code_insee": "02063", "nom": "Bellenglise", "cp": 2420, "departement": 2, "lat": 49.9241, "lon": 3.2431, "population": 378, "dist_lambersart_km": 106.7, "temps_lambersart_min": 82.0, "littoral": "non", "prix_m2": 1165.0, "nb_ventes": 23.0, "distance_sante_km": 7.17, "sante_nom": "CPEF CH SAINT-QUENTIN", "sante_categorie": "Centre Hospitalier (C.H.)", "statut": "aucun"}, {"code_insee": "02064", "nom": "Belleu", "cp": 2200, "departement": 2, "lat": 49.3597, "lon": 3.3439, "population": 3659, "dist_lambersart_km": 176.0, "temps_lambersart_min": 135.0, "littoral": "non", "prix_m2": 1772.0, "nb_ventes": 155.0, "distance_sante_km": 1.38, "sante_nom": "CH SOISSONS", "sante_categorie": "Centre Hospitalier (C.H.)", "statut": "labelisable"}, {"code_insee": "02065", "nom": "Bellicourt", "cp": 2420, "departement": 2, "lat": 49.9581, "lon": 3.2284, "population": 560, "dist_lambersart_km": 102.4, "temps_lambersart_min": 78.0, "littoral": "non", "prix_m2": 917.0, "nb_ventes": 33.0, "distance_sante_km": 11.1, "sante_nom": "CPEF CH SAINT-QUENTIN", "sante_categorie": "Centre Hospitalier (C.H.)", "statut": "aucun"}, {"code_insee": "02066", "nom": "Benay", "cp": 2440, "departement": 2, "lat": 49.7556, "lon": 3.3076, "population": 191, "dist_lambersart_km": 127.0, "temps_lambersart_min": 89.0, "littoral": "non", "prix_m2": null, "nb_ventes": 3.0, "distance_sante_km": 10.96, "sante_nom": "CH LA FÈRE", "sante_categorie": "Centre Hospitalier (C.H.)", "statut": "aucun"}, {"code_insee": "02067", "nom": "Bergues-sur-Sambre", "cp": 2450, "departement": 2, "lat": 50.03, "lon": 3.7114, "population": 205, "dist_lambersart_km": 101.4, "temps_lambersart_min": 89.0, "littoral": "non", "prix_m2": 910.0, "nb_ventes": 14.0, "distance_sante_km": 5.27, "sante_nom": "CH LE NOUVION-EN-THIÉRACHE", "sante_categorie": "Centre Hospitalier (C.H.)", "statut": "aucun"}, {"code_insee": "02068", "nom": "Berlancourt", "cp": 2250, "departement": 2, "lat": 49.7799, "lon": 3.757, "population": 85, "dist_lambersart_km": 176.7, "temps_lambersart_min": 124.0, "littoral": "non", "prix_m2": 1476.0, "nb_ventes": 14.0, "distance_sante_km": 12.07, "sante_nom": "CH VERVINS", "sante_categorie": "Centre Hospitalier (C.H.)", "statut": "aucun"}, {"code_insee": "02069", "nom": "Berlise", "cp": 2340, "departement": 2, "lat": 49.6628, "lon": 4.1104, "population": 104, "dist_lambersart_km": 196.9, "temps_lambersart_min": 146.0, "littoral": "non", "prix_m2": 922.0, "nb_ventes": 6.0, "distance_sante_km": 24.09, "sante_nom": "CH VERVINS", "sante_categorie": "Centre Hospitalier (C.H.)", "statut": "aucun"}, {"code_insee": "02070", "nom": "Bernot", "cp": 2120, "departement": 2, "lat": 49.8827, "lon": 3.4827, "population": 431, "dist_lambersart_km": 140.3, "temps_lambersart_min": 113.0, "littoral": "non", "prix_m2": 1110.0, "nb_ventes": 26.0, "distance_sante_km": 11.6, "sante_nom": "CH GUISE", "sante_categorie": "Centre Hospitalier (C.H.)", "statut": "aucun"}, {"code_insee": "02071", "nom": "Berny-Rivière", "cp": 2290, "departement": 2, "lat": 49.4118, "lon": 3.152, "population": 631, "dist_lambersart_km": 173.8, "temps_lambersart_min": 135.0, "littoral": "non", "prix_m2": 1676.0, "nb_ventes": 42.0, "distance_sante_km": 14.05, "sante_nom": "CH SOISSONS", "sante_categorie": "Centre Hospitalier (C.H.)", "statut": "aucun"}, {"code_insee": "02072", "nom": "Berrieux", "cp": 2820, "departement": 2, "lat": 49.4828, "lon": 3.8531, "population": 178, "dist_lambersart_km": 179.7, "temps_lambersart_min": 128.0, "littoral": "non", "prix_m2": 1015.0, "nb_ventes": 10.0, "distance_sante_km": 19.69, "sante_nom": "CH LAON", "sante_categorie": "Centre Hospitalier (C.H.)", "statut": "aucun"}, {"code_insee": "02073", "nom": "Berry-au-Bac", "cp": 2190, "departement": 2, "lat": 49.4076, "lon": 3.8947, "population": 722, "dist_lambersart_km": 188.1, "temps_lambersart_min": 121.0, "littoral": "non", "prix_m2": 1999.0, "nb_ventes": 20.0, "distance_sante_km": 19.25, "sante_nom": "CENTRE HOSPITALIER DE FISMES", "sante_categorie": "Centre Hospitalier (C.H.)", "statut": "aucun"}, {"code_insee": "02074", "nom": "Bertaucourt-Epourdon", "cp": 2800, "departement": 2, "lat": 49.6283, "lon": 3.3988, "population": 601, "dist_lambersart_km": 146.9, "temps_lambersart_min": 100.0, "littoral": "non", "prix_m2": 1186.0, "nb_ventes": 33.0, "distance_sante_km": 3.47, "sante_nom": "SSR JACQUES FICHEUX SAINT-GOBAIN", "sante_categorie": "Centre Hospitalier (C.H.)", "statut": "aucun"}, {"code_insee": "02075", "nom": "Berthenicourt", "cp": 2240, "departement": 2, "lat": 49.7787, "lon": 3.373, "population": 203, "dist_lambersart_km": 131.5, "temps_lambersart_min": 105.0, "littoral": "non", "prix_m2": 1273.0, "nb_ventes": 7.0, "distance_sante_km": 11.77, "sante_nom": "CENTRE PSYCHOTHÉRAPIE CH ST QUENTIN", "sante_categorie": "Centre Hospitalier (C.H.)", "statut": "aucun"}, {"code_insee": "02076", "nom": "Bertricourt", "cp": 2190, "departement": 2, "lat": 49.3975, "lon": 4.0116, "population": 159, "dist_lambersart_km": 194.6, "temps_lambersart_min": 133.0, "littoral": "non", "prix_m2": 2060.0, "nb_ventes": 5.0, "distance_sante_km": 14.99, "sante_nom": "HOPITAL SEBASTOPOL CHU REIMS", "sante_categorie": "Centre Hospitalier Régional (C.H.R.)", "statut": "aucun"}, {"code_insee": "02078", "nom": "Besmé", "cp": 2300, "departement": 2, "lat": 49.5348, "lon": 3.1657, "population": 166, "dist_lambersart_km": 156.3, "temps_lambersart_min": 114.0, "littoral": "non", "prix_m2": 1479.0, "nb_ventes": 6.0, "distance_sante_km": 9.85, "sante_nom": "CH CHAUNY", "sante_categorie": "Centre Hospitalier (C.H.)", "statut": "aucun"}, {"code_insee": "02079", "nom": "Besmont", "cp": 2500, "departement": 2, "lat": 49.8209, "lon": 4.116, "population": 132, "dist_lambersart_km": 150.3, "temps_lambersart_min": 141.0, "littoral": "non", "prix_m2": 933.0, "nb_ventes": 11.0, "distance_sante_km": 11.94, "sante_nom": "CH HIRSON", "sante_categorie": "Centre Hospitalier (C.H.)", "statut": "aucun"}, {"code_insee": "02080", "nom": "Besny-et-Loizy", "cp": 2870, "departement": 2, "lat": 49.5914, "lon": 3.5778, "population": 309, "dist_lambersart_km": 157.5, "temps_lambersart_min": 113.0, "littoral": "non", "prix_m2": 1576.0, "nb_ventes": 14.0, "distance_sante_km": 3.9, "sante_nom": "CH LAON", "sante_categorie": "Centre Hospitalier (C.H.)", "statut": "aucun"}, {"code_insee": "02081", "nom": "Béthancourt-en-Vaux", "cp": 2300, "departement": 2, "lat": 49.6274, "lon": 3.1376, "population": 421, "dist_lambersart_km": 150.2, "temps_lambersart_min": 108.0, "littoral": "non", "prix_m2": 1052.0, "nb_ventes": 15.0, "distance_sante_km": 5.06, "sante_nom": "CH CHAUNY", "sante_categorie": "Centre Hospitalier (C.H.)", "statut": "aucun"}, {"code_insee": "02082", "nom": "Beugneux", "cp": 2210, "departement": 2, "lat": 49.2243, "lon": 3.4187, "population": 120, "dist_lambersart_km": 196.5, "temps_lambersart_min": 153.0, "littoral": "non", "prix_m2": 1062.0, "nb_ventes": 8.0, "distance_sante_km": 17.37, "sante_nom": "CH SOISSONS", "sante_categorie": "Centre Hospitalier (C.H.)", "statut": "aucun"}, {"code_insee": "02083", "nom": "Beuvardes", "cp": 2130, "departement": 2, "lat": 49.1278, "lon": 3.4884, "population": 736, "dist_lambersart_km": 209.2, "temps_lambersart_min": 171.0, "littoral": "non", "prix_m2": 1396.0, "nb_ventes": 44.0, "distance_sante_km": 10.35, "sante_nom": "CH CHÂTEAU-THIERRY", "sante_categorie": "Centre Hospitalier (C.H.)", "statut": "aucun"}, {"code_insee": "02084", "nom": "Bézu-le-Guéry", "cp": 2310, "departement": 2, "lat": 49.0101, "lon": 3.2283, "population": 248, "dist_lambersart_km": 272.3, "temps_lambersart_min": 181.0, "littoral": "non", "prix_m2": 1667.0, "nb_ventes": 15.0, "distance_sante_km": 13.8, "sante_nom": "CH CHÂTEAU-THIERRY", "sante_categorie": "Centre Hospitalier (C.H.)", "statut": "aucun"}, {"code_insee": "02085", "nom": "Bézu-Saint-Germain", "cp": 2400, "departement": 2, "lat": 49.1045, "lon": 3.4082, "population": 991, "dist_lambersart_km": 256.7, "temps_lambersart_min": 163.0, "littoral": "non", "prix_m2": 1854.0, "nb_ventes": 42.0, "distance_sante_km": 6.0, "sante_nom": "CH CHÂTEAU-THIERRY", "sante_categorie": "Centre Hospitalier (C.H.)", "statut": "aucun"}, {"code_insee": "02086", "nom": "Bichancourt", "cp": 2300, "departement": 2, "lat": 49.5787, "lon": 3.2135, "population": 979, "dist_lambersart_km": 149.9, "temps_lambersart_min": 109.0, "littoral": "non", "prix_m2": 1319.0, "nb_ventes": 57.0, "distance_sante_km": 4.54, "sante_nom": "CH CHAUNY", "sante_categorie": "Centre Hospitalier (C.H.)", "statut": "aucun"}, {"code_insee": "02087", "nom": "Bieuxy", "cp": 2290, "departement": 2, "lat": 49.4469, "lon": 3.2687, "population": 31, "dist_lambersart_km": 167.3, "temps_lambersart_min": 127.0, "littoral": "non", "prix_m2": null, "nb_ventes": 3.0, "distance_sante_km": 9.74, "sante_nom": "CH SOISSONS", "sante_categorie": "Centre Hospitalier (C.H.)", "statut": "aucun"}, {"code_insee": "02088", "nom": "Bièvres", "cp": 2860, "departement": 2, "lat": 49.4923, "lon": 3.7141, "population": 80, "dist_lambersart_km": 174.4, "temps_lambersart_min": 121.0, "littoral": "non", "prix_m2": 1392.0, "nb_ventes": 9.0, "distance_sante_km": 10.8, "sante_nom": "SSR CH LAON", "sante_categorie": "Centre Hospitalier (C.H.)", "statut": "aucun"}, {"code_insee": "02089", "nom": "Billy-sur-Aisne", "cp": 2200, "departement": 2, "lat": 49.3555, "lon": 3.3753, "population": 1130, "dist_lambersart_km": 194.3, "temps_lambersart_min": 139.0, "littoral": "non", "prix_m2": 1664.0, "nb_ventes": 62.0, "distance_sante_km": 3.33, "sante_nom": "CH SOISSONS", "sante_categorie": "Centre Hospitalier (C.H.)", "statut": "aucun"}, {"code_insee": "02090", "nom": "Billy-sur-Ourcq", "cp": 2210, "departement": 2, "lat": 49.2233, "lon": 3.301, "population": 194, "dist_lambersart_km": 195.0, "temps_lambersart_min": 153.0, "littoral": "non", "prix_m2": 1117.0, "nb_ventes": 9.0, "distance_sante_km": 16.61, "sante_nom": "CH SOISSONS", "sante_categorie": "Centre Hospitalier (C.H.)", "statut": "aucun"}, {"code_insee": "02091", "nom": "Blanzy-lès-Fismes", "cp": 2160, "departement": 2, "lat": 49.3378, "lon": 3.6702, "population": 98, "dist_lambersart_km": 189.1, "temps_lambersart_min": 140.0, "littoral": "non", "prix_m2": 1161.0, "nb_ventes": 9.0, "distance_sante_km": 3.58, "sante_nom": "CENTRE HOSPITALIER DE FISMES", "sante_categorie": "Centre Hospitalier (C.H.)", "statut": "aucun"}, {"code_insee": "02093", "nom": "Blérancourt", "cp": 2300, "departement": 2, "lat": 49.51, "lon": 3.149, "population": 1162, "dist_lambersart_km": 159.1, "temps_lambersart_min": 117.0, "littoral": "non", "prix_m2": 1452.0, "nb_ventes": 82.0, "distance_sante_km": 12.84, "sante_nom": "CH CHAUNY", "sante_categorie": "Centre Hospitalier (C.H.)", "statut": "aucun"}, {"code_insee": "02094", "nom": "Blesmes", "cp": 2400, "departement": 2, "lat": 49.0258, "lon": 3.4628, "population": 474, "dist_lambersart_km": 263.5, "temps_lambersart_min": 172.0, "littoral": "non", "prix_m2": 2233.0, "nb_ventes": 21.0, "distance_sante_km": 4.78, "sante_nom": "CH CHÂTEAU-THIERRY", "sante_categorie": "Centre Hospitalier (C.H.)", "statut": "aucun"}, {"code_insee": "02095", "nom": "Bohain-en-Vermandois", "cp": 2110, "departement": 2, "lat": 49.9887, "lon": 3.464, "population": 5605, "dist_lambersart_km": 115.0, "temps_lambersart_min": 94.0, "littoral": "non", "prix_m2": 722.0, "nb_ventes": 287.0, "distance_sante_km": 13.92, "sante_nom": "CH LE CATEAU", "sante_categorie": "Centre Hospitalier (C.H.)", "statut": "labelisable"}, {"code_insee": "02096", "nom": "Bois-lès-Pargny", "cp": 2270, "departement": 2, "lat": 49.7383, "lon": 3.6567, "population": 187, "dist_lambersart_km": 154.9, "temps_lambersart_min": 114.0, "littoral": "non", "prix_m2": 848.0, "nb_ventes": 12.0, "distance_sante_km": 18.34, "sante_nom": "CH GUISE", "sante_categorie": "Centre Hospitalier (C.H.)", "statut": "aucun"}, {"code_insee": "02097", "nom": "Boncourt", "cp": 2350, "departement": 2, "lat": 49.6287, "lon": 3.9553, "population": 272, "dist_lambersart_km": 183.4, "temps_lambersart_min": 136.0, "littoral": "non", "prix_m2": 965.0, "nb_ventes": 9.0, "distance_sante_km": 22.96, "sante_nom": "CH VERVINS", "sante_categorie": "Centre Hospitalier (C.H.)", "statut": "aucun"}, {"code_insee": "02098", "nom": "Bonneil", "cp": 2400, "departement": 2, "lat": 49.0077, "lon": 3.3476, "population": 375, "dist_lambersart_km": 265.0, "temps_lambersart_min": 175.0, "littoral": "non", "prix_m2": 1418.0, "nb_ventes": 23.0, "distance_sante_km": 6.49, "sante_nom": "CH CHÂTEAU-THIERRY", "sante_categorie": "Centre Hospitalier (C.H.)", "statut": "aucun"}, {"code_insee": "02099", "nom": "Bonnesvalyn", "cp": 2400, "departement": 2, "lat": 49.1235, "lon": 3.3273, "population": 212, "dist_lambersart_km": 208.2, "temps_lambersart_min": 165.0, "littoral": "non", "prix_m2": 1587.0, "nb_ventes": 14.0, "distance_sante_km": 10.02, "sante_nom": "CH CHÂTEAU-THIERRY", "sante_categorie": "Centre Hospitalier (C.H.)", "statut": "aucun"}, {"code_insee": "02100", "nom": "Bony", "cp": 2420, "departement": 2, "lat": 49.9896, "lon": 3.218, "population": 137, "dist_lambersart_km": 100.7, "temps_lambersart_min": 77.0, "littoral": "non", "prix_m2": 1211.0, "nb_ventes": 8.0, "distance_sante_km": 14.68, "sante_nom": "CPEF CH SAINT-QUENTIN", "sante_categorie": "Centre Hospitalier (C.H.)", "statut": "aucun"}, {"code_insee": "02101", "nom": "Bosmont-sur-Serre", "cp": 2250, "departement": 2, "lat": 49.7381, "lon": 3.8664, "population": 170, "dist_lambersart_km": 178.7, "temps_lambersart_min": 130.0, "littoral": "non", "prix_m2": 1053.0, "nb_ventes": 20.0, "distance_sante_km": 10.81, "sante_nom": "CH VERVINS", "sante_categorie": "Centre Hospitalier (C.H.)", "statut": "aucun"}, {"code_insee": "02102", "nom": "Bouconville-Vauclair", "cp": 2860, "departement": 2, "lat": 49.4606, "lon": 3.7609, "population": 181, "dist_lambersart_km": 177.3, "temps_lambersart_min": 127.0, "littoral": "non", "prix_m2": 1190.0, "nb_ventes": 15.0, "distance_sante_km": 15.65, "sante_nom": "SSR CH LAON", "sante_categorie": "Centre Hospitalier (C.H.)", "statut": "aucun"}, {"code_insee": "02103", "nom": "Boué", "cp": 2450, "departement": 2, "lat": 50.0101, "lon": 3.7126, "population": 1315, "dist_lambersart_km": 104.7, "temps_lambersart_min": 94.0, "littoral": "non", "prix_m2": 875.0, "nb_ventes": 79.0, "distance_sante_km": 4.81, "sante_nom": "CH LE NOUVION-EN-THIÉRACHE", "sante_categorie": "Centre Hospitalier (C.H.)", "statut": "aucun"}, {"code_insee": "02104", "nom": "Bouffignereux", "cp": 2160, "departement": 2, "lat": 49.3776, "lon": 3.847, "population": 96, "dist_lambersart_km": 196.7, "temps_lambersart_min": 133.0, "littoral": "non", "prix_m2": 2008.0, "nb_ventes": 8.0, "distance_sante_km": 14.52, "sante_nom": "CENTRE HOSPITALIER DE FISMES", "sante_categorie": "Centre Hospitalier (C.H.)", "statut": "aucun"}, {"code_insee": "02105", "nom": "Bouresches", "cp": 2400, "departement": 2, "lat": 49.0665, "lon": 3.3191, "population": 183, "dist_lambersart_km": 263.7, "temps_lambersart_min": 176.0, "littoral": "non", "prix_m2": 1013.0, "nb_ventes": 19.0, "distance_sante_km": 6.72, "sante_nom": "CH CHÂTEAU-THIERRY", "sante_categorie": "Centre Hospitalier (C.H.)", "statut": "aucun"}, {"code_insee": "02106", "nom": "Bourg-et-Comin", "cp": 2160, "departement": 2, "lat": 49.4038, "lon": 3.6565, "population": 809, "dist_lambersart_km": 180.7, "temps_lambersart_min": 134.0, "littoral": "non", "prix_m2": 1398.0, "nb_ventes": 31.0, "distance_sante_km": 10.99, "sante_nom": "CENTRE HOSPITALIER DE FISMES", "sante_categorie": "Centre Hospitalier (C.H.)", "statut": "aucun"}, {"code_insee": "02107", "nom": "Bourguignon-sous-Coucy", "cp": 2300, "departement": 2, "lat": 49.5417, "lon": 3.1579, "population": 104, "dist_lambersart_km": 155.6, "temps_lambersart_min": 113.0, "littoral": "non", "prix_m2": null, "nb_ventes": 3.0, "distance_sante_km": 9.32, "sante_nom": "CH CHAUNY", "sante_categorie": "Centre Hospitalier (C.H.)", "statut": "aucun"}, {"code_insee": "02108", "nom": "Bourguignon-sous-Montbavin", "cp": 2000, "departement": 2, "lat": 49.528, "lon": 3.5389, "population": 140, "dist_lambersart_km": 169.5, "temps_lambersart_min": 118.0, "littoral": "non", "prix_m2": 1529.0, "nb_ventes": 11.0, "distance_sante_km": 5.02, "sante_nom": "SSR CH LAON", "sante_categorie": "Centre Hospitalier (C.H.)", "statut": "aucun"}, {"code_insee": "02109", "nom": "La Bouteille", "cp": 2140, "departement": 2, "lat": 49.8738, "lon": 3.9602, "population": 464, "dist_lambersart_km": 132.3, "temps_lambersart_min": 126.0, "littoral": "non", "prix_m2": 937.0, "nb_ventes": 34.0, "distance_sante_km": 6.19, "sante_nom": "CH VERVINS", "sante_categorie": "Centre Hospitalier (C.H.)", "statut": "aucun"}, {"code_insee": "02110", "nom": "Braine", "cp": 2220, "departement": 2, "lat": 49.3488, "lon": 3.5357, "population": 2248, "dist_lambersart_km": 192.6, "temps_lambersart_min": 141.0, "littoral": "non", "prix_m2": 1477.0, "nb_ventes": 95.0, "distance_sante_km": 11.4, "sante_nom": "CENTRE HOSPITALIER DE FISMES", "sante_categorie": "Centre Hospitalier (C.H.)", "statut": "aucun"}, {"code_insee": "02111", "nom": "Brancourt-en-Laonnois", "cp": 2320, "departement": 2, "lat": 49.517, "lon": 3.4128, "population": 702, "dist_lambersart_km": 164.5, "temps_lambersart_min": 120.0, "littoral": "non", "prix_m2": 1296.0, "nb_ventes": 29.0, "distance_sante_km": 9.21, "sante_nom": "SSR JACQUES FICHEUX SAINT-GOBAIN", "sante_categorie": "Centre Hospitalier (C.H.)", "statut": "aucun"}, {"code_insee": "02112", "nom": "Brancourt-le-Grand", "cp": 2110, "departement": 2, "lat": 49.9798, "lon": 3.3956, "population": 554, "dist_lambersart_km": 111.0, "temps_lambersart_min": 91.0, "littoral": "non", "prix_m2": 1059.0, "nb_ventes": 17.0, "distance_sante_km": 15.99, "sante_nom": "CPEF CH SAINT-QUENTIN", "sante_categorie": "Centre Hospitalier (C.H.)", "statut": "aucun"}, {"code_insee": "02114", "nom": "Brasles", "cp": 2400, "departement": 2, "lat": 49.0579, "lon": 3.4195, "population": 1788, "dist_lambersart_km": 257.9, "temps_lambersart_min": 165.0, "littoral": "non", "prix_m2": 1980.0, "nb_ventes": 66.0, "distance_sante_km": 1.13, "sante_nom": "CH CHÂTEAU-THIERRY", "sante_categorie": "Centre Hospitalier (C.H.)", "statut": "aucun"}, {"code_insee": "02115", "nom": "Braye-en-Laonnois", "cp": 2000, "departement": 2, "lat": 49.437, "lon": 3.6096, "population": 195, "dist_lambersart_km": 182.5, "temps_lambersart_min": 131.0, "littoral": "non", "prix_m2": 1448.0, "nb_ventes": 5.0, "distance_sante_km": 12.89, "sante_nom": "SSR CH LAON", "sante_categorie": "Centre Hospitalier (C.H.)", "statut": "aucun"}, {"code_insee": "02116", "nom": "Braye-en-Thiérache", "cp": 2140, "departement": 2, "lat": 49.7665, "lon": 3.9623, "population": 131, "dist_lambersart_km": 190.3, "temps_lambersart_min": 139.0, "littoral": "non", "prix_m2": 926.0, "nb_ventes": 11.0, "distance_sante_km": 8.48, "sante_nom": "CH VERVINS", "sante_categorie": "Centre Hospitalier (C.H.)", "statut": "aucun"}, {"code_insee": "02117", "nom": "Bray-Saint-Christophe", "cp": 2480, "departement": 2, "lat": 49.7738, "lon": 3.142, "population": 64, "dist_lambersart_km": 126.4, "temps_lambersart_min": 93.0, "littoral": "non", "prix_m2": null, "nb_ventes": 3.0, "distance_sante_km": 5.39, "sante_nom": "CH HAM", "sante_categorie": "Centre Hospitalier (C.H.)", "statut": "aucun"}, {"code_insee": "02118", "nom": "Braye", "cp": 2880, "departement": 2, "lat": 49.4222, "lon": 3.3769, "population": 129, "dist_lambersart_km": 169.9, "temps_lambersart_min": 127.0, "littoral": "non", "prix_m2": 1429.0, "nb_ventes": 5.0, "distance_sante_km": 6.43, "sante_nom": "CH SOISSONS", "sante_categorie": "Centre Hospitalier (C.H.)", "statut": "aucun"}, {"code_insee": "02119", "nom": "Brécy", "cp": 2210, "departement": 2, "lat": 49.1402, "lon": 3.4263, "population": 317, "dist_lambersart_km": 207.2, "temps_lambersart_min": 164.0, "littoral": "non", "prix_m2": 946.0, "nb_ventes": 23.0, "distance_sante_km": 10.05, "sante_nom": "CH CHÂTEAU-THIERRY", "sante_categorie": "Centre Hospitalier (C.H.)", "statut": "aucun"}, {"code_insee": "02120", "nom": "Brenelle", "cp": 2220, "departement": 2, "lat": 49.3694, "lon": 3.5459, "population": 193, "dist_lambersart_km": 191.5, "temps_lambersart_min": 141.0, "littoral": "non", "prix_m2": 1333.0, "nb_ventes": 7.0, "distance_sante_km": 11.93, "sante_nom": "CENTRE HOSPITALIER DE FISMES", "sante_categorie": "Centre Hospitalier (C.H.)", "statut": "aucun"}, {"code_insee": "02121", "nom": "Breny", "cp": 2210, "departement": 2, "lat": 49.1826, "lon": 3.3513, "population": 210, "dist_lambersart_km": 198.1, "temps_lambersart_min": 154.0, "littoral": "non", "prix_m2": 1314.0, "nb_ventes": 9.0, "distance_sante_km": 15.26, "sante_nom": "CH CHÂTEAU-THIERRY", "sante_categorie": "Centre Hospitalier (C.H.)", "statut": "aucun"}, {"code_insee": "02122", "nom": "Brie", "cp": 2870, "departement": 2, "lat": 49.5992, "lon": 3.4722, "population": 55, "dist_lambersart_km": 150.6, "temps_lambersart_min": 107.0, "littoral": "non", "prix_m2": null, "nb_ventes": 3.0, "distance_sante_km": 3.9, "sante_nom": "SSR JACQUES FICHEUX SAINT-GOBAIN", "sante_categorie": "Centre Hospitalier (C.H.)", "statut": "aucun"}, {"code_insee": "02123", "nom": "Brissay-Choigny", "cp": 2240, "departement": 2, "lat": 49.7224, "lon": 3.4042, "population": 296, "dist_lambersart_km": 137.7, "temps_lambersart_min": 107.0, "littoral": "non", "prix_m2": 1449.0, "nb_ventes": 10.0, "distance_sante_km": 7.3, "sante_nom": "CH LA FÈRE", "sante_categorie": "Centre Hospitalier (C.H.)", "statut": "aucun"}, {"code_insee": "02124", "nom": "Brissy-Hamégicourt", "cp": 2240, "departement": 2, "lat": 49.7458, "lon": 3.4011, "population": 653, "dist_lambersart_km": 135.5, "temps_lambersart_min": 106.0, "littoral": "non", "prix_m2": 1192.0, "nb_ventes": 42.0, "distance_sante_km": 9.64, "sante_nom": "CH LA FÈRE", "sante_categorie": "Centre Hospitalier (C.H.)", "statut": "aucun"}, {"code_insee": "02125", "nom": "Brumetz", "cp": 2810, "departement": 2, "lat": 49.1124, "lon": 3.1528, "population": 175, "dist_lambersart_km": 225.4, "temps_lambersart_min": 177.0, "littoral": "non", "prix_m2": 1996.0, "nb_ventes": 8.0, "distance_sante_km": 19.74, "sante_nom": "CH CHÂTEAU-THIERRY", "sante_categorie": "Centre Hospitalier (C.H.)", "statut": "aucun"}, {"code_insee": "02126", "nom": "Brunehamel", "cp": 2360, "departement": 2, "lat": 49.7686, "lon": 4.188, "population": 463, "dist_lambersart_km": 158.3, "temps_lambersart_min": 145.0, "littoral": "non", "prix_m2": 767.0, "nb_ventes": 26.0, "distance_sante_km": 19.23, "sante_nom": "CH HIRSON", "sante_categorie": "Centre Hospitalier (C.H.)", "statut": "aucun"}, {"code_insee": "02127", "nom": "Bruyères-sur-Fère", "cp": 2130, "departement": 2, "lat": 49.1994, "lon": 3.445, "population": 199, "dist_lambersart_km": 204.1, "temps_lambersart_min": 165.0, "littoral": "non", "prix_m2": 1538.0, "nb_ventes": 5.0, "distance_sante_km": 16.76, "sante_nom": "CH CHÂTEAU-THIERRY", "sante_categorie": "Centre Hospitalier (C.H.)", "statut": "aucun"}, {"code_insee": "02128", "nom": "Bruyères-et-Montbérault", "cp": 2860, "departement": 2, "lat": 49.5184, "lon": 3.6698, "population": 1411, "dist_lambersart_km": 166.2, "temps_lambersart_min": 115.0, "littoral": "non", "prix_m2": 1583.0, "nb_ventes": 121.0, "distance_sante_km": 6.49, "sante_nom": "SSR CH LAON", "sante_categorie": "Centre Hospitalier (C.H.)", "statut": "aucun"}, {"code_insee": "02129", "nom": "Bruys", "cp": 2220, "departement": 2, "lat": 49.2595, "lon": 3.5669, "population": 20, "dist_lambersart_km": 204.8, "temps_lambersart_min": 156.0, "littoral": "non", "prix_m2": null, "nb_ventes": 1.0, "distance_sante_km": 9.62, "sante_nom": "CENTRE HOSPITALIER DE FISMES", "sante_categorie": "Centre Hospitalier (C.H.)", "statut": "aucun"}, {"code_insee": "02130", "nom": "Bucilly", "cp": 2500, "departement": 2, "lat": 49.8636, "lon": 4.0938, "population": 204, "dist_lambersart_km": 143.3, "temps_lambersart_min": 132.0, "littoral": "non", "prix_m2": 1184.0, "nb_ventes": 6.0, "distance_sante_km": 6.95, "sante_nom": "CH HIRSON", "sante_categorie": "Centre Hospitalier (C.H.)", "statut": "aucun"}, {"code_insee": "02131", "nom": "Bucy-le-Long", "cp": 2880, "departement": 2, "lat": 49.39, "lon": 3.3923, "population": 1947, "dist_lambersart_km": 189.5, "temps_lambersart_min": 130.0, "littoral": "non", "prix_m2": 1730.0, "nb_ventes": 82.0, "distance_sante_km": 4.6, "sante_nom": "CH SOISSONS", "sante_categorie": "Centre Hospitalier (C.H.)", "statut": "aucun"}, {"code_insee": "02132", "nom": "Bucy-lès-Cerny", "cp": 2870, "departement": 2, "lat": 49.5799, "lon": 3.493, "population": 188, "dist_lambersart_km": 156.3, "temps_lambersart_min": 113.0, "littoral": "non", "prix_m2": 1294.0, "nb_ventes": 8.0, "distance_sante_km": 5.84, "sante_nom": "SSR JACQUES FICHEUX SAINT-GOBAIN", "sante_categorie": "Centre Hospitalier (C.H.)", "statut": "aucun"}, {"code_insee": "02133", "nom": "Bucy-lès-Pierrepont", "cp": 2350, "departement": 2, "lat": 49.6494, "lon": 3.904, "population": 410, "dist_lambersart_km": 177.7, "temps_lambersart_min": 125.0, "littoral": "non", "prix_m2": 794.0, "nb_ventes": 39.0, "distance_sante_km": 20.35, "sante_nom": "CH VERVINS", "sante_categorie": "Centre Hospitalier (C.H.)", "statut": "aucun"}, {"code_insee": "02134", "nom": "Buire", "cp": 2500, "departement": 2, "lat": 49.908, "lon": 4.0561, "population": 795, "dist_lambersart_km": 137.9, "temps_lambersart_min": 124.0, "littoral": "non", "prix_m2": 1158.0, "nb_ventes": 55.0, "distance_sante_km": 2.25, "sante_nom": "CH HIRSON", "sante_categorie": "Centre Hospitalier (C.H.)", "statut": "aucun"}, {"code_insee": "02135", "nom": "Buironfosse", "cp": 2620, "departement": 2, "lat": 49.958, "lon": 3.8371, "population": 1122, "dist_lambersart_km": 116.8, "temps_lambersart_min": 108.0, "littoral": "non", "prix_m2": 755.0, "nb_ventes": 48.0, "distance_sante_km": 7.36, "sante_nom": "CH LE NOUVION-EN-THIÉRACHE", "sante_categorie": "Centre Hospitalier (C.H.)", "statut": "aucun"}, {"code_insee": "02136", "nom": "Burelles", "cp": 2140, "departement": 2, "lat": 49.7702, "lon": 3.9148, "population": 123, "dist_lambersart_km": 185.7, "temps_lambersart_min": 136.0, "littoral": "non", "prix_m2": 962.0, "nb_ventes": 8.0, "distance_sante_km": 6.97, "sante_nom": "CH VERVINS", "sante_categorie": "Centre Hospitalier (C.H.)", "statut": "aucun"}, {"code_insee": "02137", "nom": "Bussiares", "cp": 2810, "departement": 2, "lat": 49.0749, "lon": 3.2501, "population": 126, "dist_lambersart_km": 233.9, "temps_lambersart_min": 177.0, "littoral": "non", "prix_m2": 1282.0, "nb_ventes": 8.0, "distance_sante_km": 11.78, "sante_nom": "CH CHÂTEAU-THIERRY", "sante_categorie": "Centre Hospitalier (C.H.)", "statut": "aucun"}, {"code_insee": "02138", "nom": "Buzancy", "cp": 2200, "departement": 2, "lat": 49.3086, "lon": 3.3487, "population": 175, "dist_lambersart_km": 184.0, "temps_lambersart_min": 144.0, "littoral": "non", "prix_m2": 1724.0, "nb_ventes": 11.0, "distance_sante_km": 6.99, "sante_nom": "CH SOISSONS", "sante_categorie": "Centre Hospitalier (C.H.)", "statut": "aucun"}, {"code_insee": "02139", "nom": "Caillouël-Crépigny", "cp": 2300, "departement": 2, "lat": 49.6174, "lon": 3.1226, "population": 459, "dist_lambersart_km": 152.0, "temps_lambersart_min": 107.0, "littoral": "non", "prix_m2": 1561.0, "nb_ventes": 23.0, "distance_sante_km": 6.07, "sante_nom": "CH CHAUNY", "sante_categorie": "Centre Hospitalier (C.H.)", "statut": "aucun"}, {"code_insee": "02140", "nom": "Camelin", "cp": 2300, "departement": 2, "lat": 49.5244, "lon": 3.1243, "population": 426, "dist_lambersart_km": 160.2, "temps_lambersart_min": 119.0, "littoral": "non", "prix_m2": 1490.0, "nb_ventes": 25.0, "distance_sante_km": 11.36, "sante_nom": "CH CHICN NOYON", "sante_categorie": "Centre Hospitalier (C.H.)", "statut": "aucun"}, {"code_insee": "02141", "nom": "La Capelle", "cp": 2260, "departement": 2, "lat": 49.9705, "lon": 3.9146, "population": 1745, "dist_lambersart_km": 118.8, "temps_lambersart_min": 108.0, "littoral": "non", "prix_m2": 938.0, "nb_ventes": 69.0, "distance_sante_km": 10.85, "sante_nom": "CH LE NOUVION-EN-THIÉRACHE", "sante_categorie": "Centre Hospitalier (C.H.)", "statut": "aucun"}, {"code_insee": "02142", "nom": "Castres", "cp": 2680, "departement": 2, "lat": 49.803, "lon": 3.2576, "population": 246, "dist_lambersart_km": 123.4, "temps_lambersart_min": 85.0, "littoral": "non", "prix_m2": 2003.0, "nb_ventes": 8.0, "distance_sante_km": 6.11, "sante_nom": "CENTRE PSYCHOTHÉRAPIE CH ST QUENTIN", "sante_categorie": "Centre Hospitalier (C.H.)", "statut": "aucun"}, {"code_insee": "02143", "nom": "Le Catelet", "cp": 2420, "departement": 2, "lat": 50.0008, "lon": 3.2425, "population": 186, "dist_lambersart_km": 97.7, "temps_lambersart_min": 73.0, "littoral": "non", "prix_m2": 655.0, "nb_ventes": 7.0, "distance_sante_km": 15.57, "sante_nom": "CPEF CH SAINT-QUENTIN", "sante_categorie": "Centre Hospitalier (C.H.)", "statut": "aucun"}, {"code_insee": "02144", "nom": "Caulaincourt", "cp": 2490, "departement": 2, "lat": 49.8646, "lon": 3.1078, "population": 143, "dist_lambersart_km": 121.6, "temps_lambersart_min": 87.0, "littoral": "non", "prix_m2": 1852.0, "nb_ventes": 10.0, "distance_sante_km": 11.38, "sante_nom": "CENTRE PSYCHOTHÉRAPIE CH ST QUENTIN", "sante_categorie": "Centre Hospitalier (C.H.)", "statut": "aucun"}, {"code_insee": "02145", "nom": "Caumont", "cp": 2300, "departement": 2, "lat": 49.6374, "lon": 3.173, "population": 547, "dist_lambersart_km": 146.4, "temps_lambersart_min": 102.0, "littoral": "non", "prix_m2": 1347.0, "nb_ventes": 26.0, "distance_sante_km": 3.15, "sante_nom": "CH CHAUNY", "sante_categorie": "Centre Hospitalier (C.H.)", "statut": "aucun"}, {"code_insee": "02146", "nom": "Celles-lès-Condé", "cp": 2330, "departement": 2, "lat": 49.0158, "lon": 3.5703, "population": 88, "dist_lambersart_km": 250.6, "temps_lambersart_min": 171.0, "littoral": "non", "prix_m2": 1380.0, "nb_ventes": 5.0, "distance_sante_km": 12.31, "sante_nom": "CH CHÂTEAU-THIERRY", "sante_categorie": "Centre Hospitalier (C.H.)", "statut": "aucun"}, {"code_insee": "02148", "nom": "Celles-sur-Aisne", "cp": 2370, "departement": 2, "lat": 49.4135, "lon": 3.4701, "population": 248, "dist_lambersart_km": 185.7, "temps_lambersart_min": 132.0, "littoral": "non", "prix_m2": 1617.0, "nb_ventes": 13.0, "distance_sante_km": 10.8, "sante_nom": "CH SOISSONS", "sante_categorie": "Centre Hospitalier (C.H.)", "statut": "aucun"}, {"code_insee": "02149", "nom": "Cerizy", "cp": 2240, "departement": 2, "lat": 49.7667, "lon": 3.3346, "population": 58, "dist_lambersart_km": 127.3, "temps_lambersart_min": 87.0, "littoral": "non", "prix_m2": null, "nb_ventes": 1.0, "distance_sante_km": 11.31, "sante_nom": "CENTRE PSYCHOTHÉRAPIE CH ST QUENTIN", "sante_categorie": "Centre Hospitalier (C.H.)", "statut": "aucun"}, {"code_insee": "02150", "nom": "Cerny-en-Laonnois", "cp": 2860, "departement": 2, "lat": 49.4492, "lon": 3.6803, "population": 63, "dist_lambersart_km": 177.4, "temps_lambersart_min": 134.0, "littoral": "non", "prix_m2": 1262.0, "nb_ventes": 5.0, "distance_sante_km": 12.98, "sante_nom": "SSR CH LAON", "sante_categorie": "Centre Hospitalier (C.H.)", "statut": "aucun"}, {"code_insee": "02151", "nom": "Cerny-lès-Bucy", "cp": 2870, "departement": 2, "lat": 49.5791, "lon": 3.5466, "population": 111, "dist_lambersart_km": 155.9, "temps_lambersart_min": 111.0, "littoral": "non", "prix_m2": 1768.0, "nb_ventes": 17.0, "distance_sante_km": 4.69, "sante_nom": "SSR CH LAON", "sante_categorie": "Centre Hospitalier (C.H.)", "statut": "aucun"}, {"code_insee": "02152", "nom": "Cerseuil", "cp": 2220, "departement": 2, "lat": 49.3259, "lon": 3.5175, "population": 87, "dist_lambersart_km": 195.1, "temps_lambersart_min": 143.0, "littoral": "non", "prix_m2": null, "nb_ventes": 3.0, "distance_sante_km": 11.89, "sante_nom": "CENTRE HOSPITALIER DE FISMES", "sante_categorie": "Centre Hospitalier (C.H.)", "statut": "aucun"}, {"code_insee": "02153", "nom": "Cessières-Suzy", "cp": 2320, "departement": 2, "lat": 49.5575, "lon": 3.4817, "population": 801, "dist_lambersart_km": 159.2, "temps_lambersart_min": 114.0, "littoral": "non", "prix_m2": 1438.0, "nb_ventes": 37.0, "distance_sante_km": 6.57, "sante_nom": "SSR JACQUES FICHEUX SAINT-GOBAIN", "sante_categorie": "Centre Hospitalier (C.H.)", "statut": "aucun"}, {"code_insee": "02154", "nom": "Chacrise", "cp": 2200, "departement": 2, "lat": 49.3008, "lon": 3.3964, "population": 375, "dist_lambersart_km": 186.2, "temps_lambersart_min": 148.0, "littoral": "non", "prix_m2": 1459.0, "nb_ventes": 15.0, "distance_sante_km": 8.94, "sante_nom": "CH SOISSONS", "sante_categorie": "Centre Hospitalier (C.H.)", "statut": "aucun"}, {"code_insee": "02155", "nom": "Chaillevois", "cp": 2000, "departement": 2, "lat": 49.5087, "lon": 3.5233, "population": 201, "dist_lambersart_km": 173.0, "temps_lambersart_min": 118.0, "littoral": "non", "prix_m2": 2011.0, "nb_ventes": 6.0, "distance_sante_km": 7.23, "sante_nom": "SSR CH LAON", "sante_categorie": "Centre Hospitalier (C.H.)", "statut": "aucun"}, {"code_insee": "02156", "nom": "Chalandry", "cp": 2270, "departement": 2, "lat": 49.6691, "lon": 3.6474, "population": 234, "dist_lambersart_km": 151.5, "temps_lambersart_min": 108.0, "littoral": "non", "prix_m2": 1194.0, "nb_ventes": 11.0, "distance_sante_km": 12.01, "sante_nom": "CH LAON", "sante_categorie": "Centre Hospitalier (C.H.)", "statut": "aucun"}, {"code_insee": "02157", "nom": "Chambry", "cp": 2000, "departement": 2, "lat": 49.5985, "lon": 3.6719, "population": 827, "dist_lambersart_km": 156.4, "temps_lambersart_min": 103.0, "littoral": "non", "prix_m2": 1541.0, "nb_ventes": 21.0, "distance_sante_km": 5.86, "sante_nom": "CH LAON", "sante_categorie": "Centre Hospitalier (C.H.)", "statut": "aucun"}, {"code_insee": "02158", "nom": "Chamouille", "cp": 2860, "departement": 2, "lat": 49.4723, "lon": 3.671, "population": 272, "dist_lambersart_km": 172.2, "temps_lambersart_min": 122.0, "littoral": "non", "prix_m2": 1436.0, "nb_ventes": 19.0, "distance_sante_km": 10.41, "sante_nom": "SSR CH LAON", "sante_categorie": "Centre Hospitalier (C.H.)", "statut": "aucun"}, {"code_insee": "02159", "nom": "Champs", "cp": 2670, "departement": 2, "lat": 49.538, "lon": 3.257, "population": 313, "dist_lambersart_km": 152.5, "temps_lambersart_min": 109.0, "littoral": "non", "prix_m2": 881.0, "nb_ventes": 16.0, "distance_sante_km": 9.75, "sante_nom": "CH CHAUNY", "sante_categorie": "Centre Hospitalier (C.H.)", "statut": "aucun"}, {"code_insee": "02160", "nom": "Chaourse", "cp": 2340, "departement": 2, "lat": 49.703, "lon": 3.9837, "population": 495, "dist_lambersart_km": 187.5, "temps_lambersart_min": 140.0, "littoral": "non", "prix_m2": 742.0, "nb_ventes": 38.0, "distance_sante_km": 15.52, "sante_nom": "CH VERVINS", "sante_categorie": "Centre Hospitalier (C.H.)", "statut": "aucun"}, {"code_insee": "02162", "nom": "La Chapelle-sur-Chézy", "cp": 2570, "departement": 2, "lat": 48.9495, "lon": 3.375, "population": 301, "dist_lambersart_km": 269.8, "temps_lambersart_min": 180.0, "littoral": "non", "prix_m2": 1479.0, "nb_ventes": 13.0, "distance_sante_km": 11.5, "sante_nom": "CH CHÂTEAU-THIERRY", "sante_categorie": "Centre Hospitalier (C.H.)", "statut": "aucun"}, {"code_insee": "02163", "nom": "Charly-sur-Marne", "cp": 2310, "departement": 2, "lat": 48.9821, "lon": 3.2936, "population": 2594, "dist_lambersart_km": 272.4, "temps_lambersart_min": 185.0, "littoral": "non", "prix_m2": 1834.0, "nb_ventes": 78.0, "distance_sante_km": 11.28, "sante_nom": "CH CHÂTEAU-THIERRY", "sante_categorie": "Centre Hospitalier (C.H.)", "statut": "labelisable"}, {"code_insee": "02164", "nom": "Le Charmel", "cp": 2850, "departement": 2, "lat": 49.1106, "lon": 3.5446, "population": 323, "dist_lambersart_km": 246.3, "temps_lambersart_min": 168.0, "littoral": "non", "prix_m2": 1391.0, "nb_ventes": 19.0, "distance_sante_km": 11.89, "sante_nom": "CH CHÂTEAU-THIERRY", "sante_categorie": "Centre Hospitalier (C.H.)", "statut": "aucun"}, {"code_insee": "02165", "nom": "Charmes", "cp": 2800, "departement": 2, "lat": 49.6524, "lon": 3.3834, "population": 1568, "dist_lambersart_km": 144.6, "temps_lambersart_min": 99.0, "littoral": "non", "prix_m2": 1077.0, "nb_ventes": 84.0, "distance_sante_km": 2.06, "sante_nom": "CH LA FÈRE", "sante_categorie": "Centre Hospitalier (C.H.)", "statut": "aucun"}, {"code_insee": "02166", "nom": "Chartèves", "cp": 2400, "departement": 2, "lat": 49.0894, "lon": 3.504, "population": 361, "dist_lambersart_km": 255.9, "temps_lambersart_min": 175.0, "littoral": "non", "prix_m2": 2088.0, "nb_ventes": 37.0, "distance_sante_km": 8.14, "sante_nom": "CH CHÂTEAU-THIERRY", "sante_categorie": "Centre Hospitalier (C.H.)", "statut": "aucun"}, {"code_insee": "02167", "nom": "Chassemy", "cp": 2370, "departement": 2, "lat": 49.3778, "lon": 3.5046, "population": 895, "dist_lambersart_km": 186.7, "temps_lambersart_min": 134.0, "littoral": "non", "prix_m2": 1468.0, "nb_ventes": 43.0, "distance_sante_km": 12.23, "sante_nom": "CH SOISSONS", "sante_categorie": "Centre Hospitalier (C.H.)", "statut": "aucun"}, {"code_insee": "02168", "nom": "Château-Thierry", "cp": 2400, "departement": 2, "lat": 49.0556, "lon": 3.3784, "population": 15097, "dist_lambersart_km": 256.5, "temps_lambersart_min": 166.0, "littoral": "non", "prix_m2": 1969.0, "nb_ventes": 425.0, "distance_sante_km": 2.26, "sante_nom": "CH CHÂTEAU-THIERRY", "sante_categorie": "Centre Hospitalier (C.H.)", "statut": "labelisable"}, {"code_insee": "02169", "nom": "Châtillon-lès-Sons", "cp": 2270, "departement": 2, "lat": 49.7629, "lon": 3.6986, "population": 83, "dist_lambersart_km": 159.3, "temps_lambersart_min": 121.0, "littoral": "non", "prix_m2": null, "nb_ventes": 3.0, "distance_sante_km": 16.13, "sante_nom": "CH GUISE", "sante_categorie": "Centre Hospitalier (C.H.)", "statut": "aucun"}, {"code_insee": "02170", "nom": "Châtillon-sur-Oise", "cp": 2240, "departement": 2, "lat": 49.7951, "lon": 3.4173, "population": 125, "dist_lambersart_km": 132.1, "temps_lambersart_min": 98.0, "littoral": "non", "prix_m2": null, "nb_ventes": 4.0, "distance_sante_km": 13.03, "sante_nom": "CPEF CH SAINT-QUENTIN", "sante_categorie": "Centre Hospitalier (C.H.)", "statut": "aucun"}, {"code_insee": "02171", "nom": "Chaudardes", "cp": 2160, "departement": 2, "lat": 49.3968, "lon": 3.788, "population": 91, "dist_lambersart_km": 194.9, "temps_lambersart_min": 128.0, "littoral": "non", "prix_m2": 840.0, "nb_ventes": 7.0, "distance_sante_km": 12.8, "sante_nom": "CENTRE HOSPITALIER DE FISMES", "sante_categorie": "Centre Hospitalier (C.H.)", "statut": "aucun"}, {"code_insee": "02172", "nom": "Chaudun", "cp": 2200, "departement": 2, "lat": 49.3141, "lon": 3.2508, "population": 238, "dist_lambersart_km": 185.8, "temps_lambersart_min": 145.0, "littoral": "non", "prix_m2": 1688.0, "nb_ventes": 14.0, "distance_sante_km": 8.82, "sante_nom": "CH SOISSONS", "sante_categorie": "Centre Hospitalier (C.H.)", "statut": "aucun"}, {"code_insee": "02173", "nom": "Chauny", "cp": 2300, "departement": 2, "lat": 49.6185, "lon": 3.2192, "population": 11596, "dist_lambersart_km": 144.2, "temps_lambersart_min": 100.0, "littoral": "non", "prix_m2": 1231.0, "nb_ventes": 607.0, "distance_sante_km": 0.93, "sante_nom": "CH CHAUNY", "sante_categorie": "Centre Hospitalier (C.H.)", "statut": "labelisable"}, {"code_insee": "02174", "nom": "Chavignon", "cp": 2000, "departement": 2, "lat": 49.4782, "lon": 3.5155, "population": 859, "dist_lambersart_km": 175.1, "temps_lambersart_min": 121.0, "littoral": "non", "prix_m2": 1211.0, "nb_ventes": 43.0, "distance_sante_km": 10.16, "sante_nom": "SSR CH LAON", "sante_categorie": "Centre Hospitalier (C.H.)", "statut": "aucun"}, {"code_insee": "02175", "nom": "Chavigny", "cp": 2880, "departement": 2, "lat": 49.4229, "lon": 3.309, "population": 153, "dist_lambersart_km": 172.0, "temps_lambersart_min": 132.0, "littoral": "non", "prix_m2": 1288.0, "nb_ventes": 5.0, "distance_sante_km": 6.1, "sante_nom": "CH SOISSONS", "sante_categorie": "Centre Hospitalier (C.H.)", "statut": "aucun"}, {"code_insee": "02176", "nom": "Chavonne", "cp": 2370, "departement": 2, "lat": 49.4081, "lon": 3.5614, "population": 214, "dist_lambersart_km": 186.1, "temps_lambersart_min": 137.0, "littoral": "non", "prix_m2": 1499.0, "nb_ventes": 17.0, "distance_sante_km": 14.18, "sante_nom": "CENTRE HOSPITALIER DE FISMES", "sante_categorie": "Centre Hospitalier (C.H.)", "statut": "aucun"}, {"code_insee": "02177", "nom": "Chérêt", "cp": 2860, "departement": 2, "lat": 49.5147, "lon": 3.6878, "population": 147, "dist_lambersart_km": 167.4, "temps_lambersart_min": 117.0, "littoral": "non", "prix_m2": 1480.0, "nb_ventes": 13.0, "distance_sante_km": 7.78, "sante_nom": "CH LAON", "sante_categorie": "Centre Hospitalier (C.H.)", "statut": "aucun"}, {"code_insee": "02178", "nom": "Chermizy-Ailles", "cp": 2860, "departement": 2, "lat": 49.464, "lon": 3.7196, "population": 127, "dist_lambersart_km": 175.9, "temps_lambersart_min": 128.0, "littoral": "non", "prix_m2": null, "nb_ventes": 2.0, "distance_sante_km": 13.25, "sante_nom": "SSR CH LAON", "sante_categorie": "Centre Hospitalier (C.H.)", "statut": "aucun"}, {"code_insee": "02179", "nom": "Chéry-Chartreuve", "cp": 2220, "departement": 2, "lat": 49.2529, "lon": 3.6081, "population": 378, "dist_lambersart_km": 201.7, "temps_lambersart_min": 155.0, "littoral": "non", "prix_m2": 1333.0, "nb_ventes": 33.0, "distance_sante_km": 7.83, "sante_nom": "CENTRE HOSPITALIER DE FISMES", "sante_categorie": "Centre Hospitalier (C.H.)", "statut": "aucun"}, {"code_insee": "02180", "nom": "Chéry-lès-Pouilly", "cp": 2000, "departement": 2, "lat": 49.6479, "lon": 3.5886, "population": 742, "dist_lambersart_km": 152.0, "temps_lambersart_min": 111.0, "littoral": "non", "prix_m2": 1522.0, "nb_ventes": 43.0, "distance_sante_km": 9.5, "sante_nom": "CH LAON", "sante_categorie": "Centre Hospitalier (C.H.)", "statut": "aucun"}, {"code_insee": "02181", "nom": "Chéry-lès-Rozoy", "cp": 2360, "departement": 2, "lat": 49.7245, "lon": 4.1026, "population": 98, "dist_lambersart_km": 195.3, "temps_lambersart_min": 145.0, "littoral": "non", "prix_m2": 712.0, "nb_ventes": 7.0, "distance_sante_km": 18.76, "sante_nom": "CH VERVINS", "sante_categorie": "Centre Hospitalier (C.H.)", "statut": "aucun"}, {"code_insee": "02182", "nom": "Chevennes", "cp": 2250, "departement": 2, "lat": 49.8196, "lon": 3.7386, "population": 136, "dist_lambersart_km": 157.5, "temps_lambersart_min": 125.0, "littoral": "non", "prix_m2": null, "nb_ventes": 4.0, "distance_sante_km": 11.68, "sante_nom": "CH GUISE", "sante_categorie": "Centre Hospitalier (C.H.)", "statut": "aucun"}, {"code_insee": "02183", "nom": "Chevregny", "cp": 2000, "departement": 2, "lat": 49.47, "lon": 3.595, "population": 197, "dist_lambersart_km": 176.4, "temps_lambersart_min": 123.0, "littoral": "non", "prix_m2": 844.0, "nb_ventes": 5.0, "distance_sante_km": 9.19, "sante_nom": "SSR CH LAON", "sante_categorie": "Centre Hospitalier (C.H.)", "statut": "aucun"}, {"code_insee": "02184", "nom": "Chevresis-Monceau", "cp": 2270, "departement": 2, "lat": 49.7657, "lon": 3.5843, "population": 329, "dist_lambersart_km": 151.4, "temps_lambersart_min": 114.0, "littoral": "non", "prix_m2": 824.0, "nb_ventes": 12.0, "distance_sante_km": 15.77, "sante_nom": "CH GUISE", "sante_categorie": "Centre Hospitalier (C.H.)", "statut": "aucun"}, {"code_insee": "02185", "nom": "Chézy-en-Orxois", "cp": 2810, "departement": 2, "lat": 49.1247, "lon": 3.1565, "population": 389, "dist_lambersart_km": 207.1, "temps_lambersart_min": 168.0, "littoral": "non", "prix_m2": 1550.0, "nb_ventes": 23.0, "distance_sante_km": 20.01, "sante_nom": "CH CHÂTEAU-THIERRY", "sante_categorie": "Centre Hospitalier (C.H.)", "statut": "aucun"}, {"code_insee": "02186", "nom": "Chézy-sur-Marne", "cp": 2570, "departement": 2, "lat": 48.9857, "lon": 3.3882, "population": 1296, "dist_lambersart_km": 267.4, "temps_lambersart_min": 178.0, "littoral": "non", "prix_m2": 1800.0, "nb_ventes": 81.0, "distance_sante_km": 7.36, "sante_nom": "CH CHÂTEAU-THIERRY", "sante_categorie": "Centre Hospitalier (C.H.)", "statut": "aucun"}, {"code_insee": "02187", "nom": "Chierry", "cp": 2400, "departement": 2, "lat": 49.0326, "lon": 3.4321, "population": 1195, "dist_lambersart_km": 260.4, "temps_lambersart_min": 172.0, "littoral": "non", "prix_m2": 2000.0, "nb_ventes": 61.0, "distance_sante_km": 2.62, "sante_nom": "CH CHÂTEAU-THIERRY", "sante_categorie": "Centre Hospitalier (C.H.)", "statut": "aucun"}, {"code_insee": "02188", "nom": "Chigny", "cp": 2120, "departement": 2, "lat": 49.9291, "lon": 3.7728, "population": 140, "dist_lambersart_km": 117.4, "temps_lambersart_min": 108.0, "littoral": "non", "prix_m2": 1320.0, "nb_ventes": 16.0, "distance_sante_km": 9.26, "sante_nom": "CH LE NOUVION-EN-THIÉRACHE", "sante_categorie": "Centre Hospitalier (C.H.)", "statut": "aucun"}, {"code_insee": "02189", "nom": "Chivres-en-Laonnois", "cp": 2350, "departement": 2, "lat": 49.6256, "lon": 3.8576, "population": 359, "dist_lambersart_km": 174.0, "temps_lambersart_min": 129.0, "littoral": "non", "prix_m2": 1119.0, "nb_ventes": 17.0, "distance_sante_km": 19.12, "sante_nom": "CH LAON", "sante_categorie": "Centre Hospitalier (C.H.)", "statut": "aucun"}, {"code_insee": "02190", "nom": "Chivres-Val", "cp": 2880, "departement": 2, "lat": 49.4048, "lon": 3.4371, "population": 526, "dist_lambersart_km": 189.0, "temps_lambersart_min": 133.0, "littoral": "non", "prix_m2": 2037.0, "nb_ventes": 14.0, "distance_sante_km": 8.24, "sante_nom": "CH SOISSONS", "sante_categorie": "Centre Hospitalier (C.H.)", "statut": "aucun"}, {"code_insee": "02191", "nom": "Chivy-lès-Étouvelles", "cp": 2000, "departement": 2, "lat": 49.5334, "lon": 3.5838, "population": 484, "dist_lambersart_km": 165.8, "temps_lambersart_min": 112.0, "littoral": "non", "prix_m2": 1185.0, "nb_ventes": 15.0, "distance_sante_km": 2.34, "sante_nom": "SSR CH LAON", "sante_categorie": "Centre Hospitalier (C.H.)", "statut": "aucun"}, {"code_insee": "02192", "nom": "Chouy", "cp": 2210, "departement": 2, "lat": 49.2154, "lon": 3.2433, "population": 364, "dist_lambersart_km": 202.5, "temps_lambersart_min": 155.0, "littoral": "non", "prix_m2": 1610.0, "nb_ventes": 20.0, "distance_sante_km": 18.54, "sante_nom": "CH SOISSONS", "sante_categorie": "Centre Hospitalier (C.H.)", "statut": "aucun"}, {"code_insee": "02193", "nom": "Cierges", "cp": 2130, "departement": 2, "lat": 49.1659, "lon": 3.6022, "population": 62, "dist_lambersart_km": 242.4, "temps_lambersart_min": 164.0, "littoral": "non", "prix_m2": 806.0, "nb_ventes": 5.0, "distance_sante_km": 16.55, "sante_nom": "CENTRE HOSPITALIER DE FISMES", "sante_categorie": "Centre Hospitalier (C.H.)", "statut": "aucun"}, {"code_insee": "02194", "nom": "Cilly", "cp": 2250, "departement": 2, "lat": 49.7473, "lon": 3.8421, "population": 173, "dist_lambersart_km": 178.6, "temps_lambersart_min": 132.0, "littoral": "non", "prix_m2": 1222.0, "nb_ventes": 7.0, "distance_sante_km": 10.44, "sante_nom": "CH VERVINS", "sante_categorie": "Centre Hospitalier (C.H.)", "statut": "aucun"}, {"code_insee": "02195", "nom": "Ciry-Salsogne", "cp": 2220, "departement": 2, "lat": 49.3693, "lon": 3.4664, "population": 882, "dist_lambersart_km": 193.2, "temps_lambersart_min": 137.0, "littoral": "non", "prix_m2": 1538.0, "nb_ventes": 37.0, "distance_sante_km": 9.44, "sante_nom": "CH SOISSONS", "sante_categorie": "Centre Hospitalier (C.H.)", "statut": "aucun"}, {"code_insee": "02196", "nom": "Clacy-et-Thierret", "cp": 2000, "departement": 2, "lat": 49.5546, "lon": 3.5651, "population": 289, "dist_lambersart_km": 167.8, "temps_lambersart_min": 115.0, "littoral": "non", "prix_m2": 1757.0, "nb_ventes": 9.0, "distance_sante_km": 2.32, "sante_nom": "SSR CH LAON", "sante_categorie": "Centre Hospitalier (C.H.)", "statut": "aucun"}, {"code_insee": "02197", "nom": "Clairfontaine", "cp": 2260, "departement": 2, "lat": 49.969, "lon": 3.9919, "population": 509, "dist_lambersart_km": 124.3, "temps_lambersart_min": 115.0, "littoral": "non", "prix_m2": 1143.0, "nb_ventes": 18.0, "distance_sante_km": 6.82, "sante_nom": "CH FOURMIES", "sante_categorie": "Centre Hospitalier (C.H.)", "statut": "aucun"}, {"code_insee": "02198", "nom": "Clamecy", "cp": 2880, "departement": 2, "lat": 49.4274, "lon": 3.3654, "population": 243, "dist_lambersart_km": 168.4, "temps_lambersart_min": 123.0, "littoral": "non", "prix_m2": 1768.0, "nb_ventes": 14.0, "distance_sante_km": 6.64, "sante_nom": "CH SOISSONS", "sante_categorie": "Centre Hospitalier (C.H.)", "statut": "aucun"}, {"code_insee": "02199", "nom": "Clastres", "cp": 2440, "departement": 2, "lat": 49.7491, "lon": 3.228, "population": 589, "dist_lambersart_km": 132.3, "temps_lambersart_min": 92.0, "littoral": "non", "prix_m2": 1492.0, "nb_ventes": 35.0, "distance_sante_km": 10.37, "sante_nom": "CH HAM", "sante_categorie": "Centre Hospitalier (C.H.)", "statut": "aucun"}, {"code_insee": "02200", "nom": "Clermont-les-Fermes", "cp": 2340, "departement": 2, "lat": 49.6602, "lon": 3.9448, "population": 97, "dist_lambersart_km": 182.0, "temps_lambersart_min": 136.0, "littoral": "non", "prix_m2": 1040.0, "nb_ventes": 6.0, "distance_sante_km": 19.38, "sante_nom": "CH VERVINS", "sante_categorie": "Centre Hospitalier (C.H.)", "statut": "aucun"}, {"code_insee": "02201", "nom": "Cœuvres-et-Valsery", "cp": 2600, "departement": 2, "lat": 49.324, "lon": 3.1496, "population": 467, "dist_lambersart_km": 189.3, "temps_lambersart_min": 149.0, "littoral": "non", "prix_m2": 1755.0, "nb_ventes": 27.0, "distance_sante_km": 14.44, "sante_nom": "CH SOISSONS", "sante_categorie": "Centre Hospitalier (C.H.)", "statut": "aucun"}, {"code_insee": "02203", "nom": "Coincy", "cp": 2210, "departement": 2, "lat": 49.1548, "lon": 3.4331, "population": 1308, "dist_lambersart_km": 206.2, "temps_lambersart_min": 163.0, "littoral": "non", "prix_m2": 1360.0, "nb_ventes": 77.0, "distance_sante_km": 11.73, "sante_nom": "CH CHÂTEAU-THIERRY", "sante_categorie": "Centre Hospitalier (C.H.)", "statut": "aucun"}, {"code_insee": "02204", "nom": "Coingt", "cp": 2360, "departement": 2, "lat": 49.7928, "lon": 4.0956, "population": 61, "dist_lambersart_km": 153.9, "temps_lambersart_min": 143.0, "littoral": "non", "prix_m2": 818.0, "nb_ventes": 12.0, "distance_sante_km": 14.6, "sante_nom": "CH VERVINS", "sante_categorie": "Centre Hospitalier (C.H.)", "statut": "aucun"}, {"code_insee": "02205", "nom": "Colligis-Crandelain", "cp": 2860, "departement": 2, "lat": 49.4696, "lon": 3.628, "population": 207, "dist_lambersart_km": 174.8, "temps_lambersart_min": 126.0, "littoral": "non", "prix_m2": 1214.0, "nb_ventes": 11.0, "distance_sante_km": 9.5, "sante_nom": "SSR CH LAON", "sante_categorie": "Centre Hospitalier (C.H.)", "statut": "aucun"}, {"code_insee": "02206", "nom": "Colonfay", "cp": 2120, "departement": 2, "lat": 49.8575, "lon": 3.7117, "population": 71, "dist_lambersart_km": 125.5, "temps_lambersart_min": 119.0, "littoral": "non", "prix_m2": 2125.0, "nb_ventes": 5.0, "distance_sante_km": 7.23, "sante_nom": "CH GUISE", "sante_categorie": "Centre Hospitalier (C.H.)", "statut": "aucun"}, {"code_insee": "02207", "nom": "Commenchon", "cp": 2300, "departement": 2, "lat": 49.6415, "lon": 3.1488, "population": 224, "dist_lambersart_km": 149.0, "temps_lambersart_min": 106.0, "littoral": "non", "prix_m2": 1314.0, "nb_ventes": 13.0, "distance_sante_km": 4.85, "sante_nom": "CH CHAUNY", "sante_categorie": "Centre Hospitalier (C.H.)", "statut": "aucun"}, {"code_insee": "02208", "nom": "Concevreux", "cp": 2160, "departement": 2, "lat": 49.3781, "lon": 3.7828, "population": 256, "dist_lambersart_km": 197.8, "temps_lambersart_min": 134.0, "littoral": "non", "prix_m2": 1669.0, "nb_ventes": 27.0, "distance_sante_km": 10.98, "sante_nom": "CENTRE HOSPITALIER DE FISMES", "sante_categorie": "Centre Hospitalier (C.H.)", "statut": "aucun"}, {"code_insee": "02209", "nom": "Condé-en-Brie", "cp": 2330, "departement": 2, "lat": 48.9999, "lon": 3.5602, "population": 654, "dist_lambersart_km": 251.7, "temps_lambersart_min": 173.0, "littoral": "non", "prix_m2": 1233.0, "nb_ventes": 45.0, "distance_sante_km": 12.32, "sante_nom": "CH CHÂTEAU-THIERRY", "sante_categorie": "Centre Hospitalier (C.H.)", "statut": "aucun"}, {"code_insee": "02210", "nom": "Condé-sur-Aisne", "cp": 2370, "departement": 2, "lat": 49.4014, "lon": 3.4684, "population": 352, "dist_lambersart_km": 187.0, "temps_lambersart_min": 134.0, "littoral": "non", "prix_m2": 1512.0, "nb_ventes": 20.0, "distance_sante_km": 10.17, "sante_nom": "CH SOISSONS", "sante_categorie": "Centre Hospitalier (C.H.)", "statut": "aucun"}, {"code_insee": "02211", "nom": "Condé-sur-Suippe", "cp": 2190, "departement": 2, "lat": 49.4147, "lon": 3.9447, "population": 357, "dist_lambersart_km": 189.4, "temps_lambersart_min": 125.0, "littoral": "non", "prix_m2": 1680.0, "nb_ventes": 20.0, "distance_sante_km": 18.26, "sante_nom": "HOPITAL SEBASTOPOL CHU REIMS", "sante_categorie": "Centre Hospitalier Régional (C.H.R.)", "statut": "aucun"}, {"code_insee": "02212", "nom": "Condren", "cp": 2700, "departement": 2, "lat": 49.6332, "lon": 3.2767, "population": 674, "dist_lambersart_km": 142.2, "temps_lambersart_min": 98.0, "littoral": "non", "prix_m2": 1348.0, "nb_ventes": 29.0, "distance_sante_km": 5.31, "sante_nom": "CH CHAUNY", "sante_categorie": "Centre Hospitalier (C.H.)", "statut": "aucun"}, {"code_insee": "02213", "nom": "Connigis", "cp": 2330, "departement": 2, "lat": 49.0357, "lon": 3.532, "population": 306, "dist_lambersart_km": 254.2, "temps_lambersart_min": 173.0, "littoral": "non", "prix_m2": 1675.0, "nb_ventes": 19.0, "distance_sante_km": 9.07, "sante_nom": "CH CHÂTEAU-THIERRY", "sante_categorie": "Centre Hospitalier (C.H.)", "statut": "aucun"}, {"code_insee": "02214", "nom": "Contescourt", "cp": 2680, "departement": 2, "lat": 49.7921, "lon": 3.2343, "population": 61, "dist_lambersart_km": 125.8, "temps_lambersart_min": 89.0, "littoral": "non", "prix_m2": null, "nb_ventes": 4.0, "distance_sante_km": 7.62, "sante_nom": "CENTRE PSYCHOTHÉRAPIE CH ST QUENTIN", "sante_categorie": "Centre Hospitalier (C.H.)", "statut": "aucun"}, {"code_insee": "02215", "nom": "Corbeny", "cp": 2820, "departement": 2, "lat": 49.4613, "lon": 3.8256, "population": 851, "dist_lambersart_km": 176.9, "temps_lambersart_min": 122.0, "littoral": "non", "prix_m2": 1667.0, "nb_ventes": 33.0, "distance_sante_km": 19.25, "sante_nom": "CH LAON", "sante_categorie": "Centre Hospitalier (C.H.)", "statut": "aucun"}, {"code_insee": "02216", "nom": "Corcy", "cp": 2600, "departement": 2, "lat": 49.2528, "lon": 3.1957, "population": 332, "dist_lambersart_km": 197.6, "temps_lambersart_min": 149.0, "littoral": "non", "prix_m2": 1745.0, "nb_ventes": 22.0, "distance_sante_km": 16.59, "sante_nom": "CH SOISSONS", "sante_categorie": "Centre Hospitalier (C.H.)", "statut": "aucun"}, {"code_insee": "02217", "nom": "Coucy-le-Château-Auffrique", "cp": 2380, "departement": 2, "lat": 49.514, "lon": 3.3178, "population": 990, "dist_lambersart_km": 156.9, "temps_lambersart_min": 112.0, "littoral": "non", "prix_m2": 1262.0, "nb_ventes": 66.0, "distance_sante_km": 11.99, "sante_nom": "SSR JACQUES FICHEUX SAINT-GOBAIN", "sante_categorie": "Centre Hospitalier (C.H.)", "statut": "aucun"}, {"code_insee": "02218", "nom": "Coucy-lès-Eppes", "cp": 2840, "departement": 2, "lat": 49.556, "lon": 3.7811, "population": 649, "dist_lambersart_km": 167.8, "temps_lambersart_min": 115.0, "littoral": "non", "prix_m2": 1285.0, "nb_ventes": 29.0, "distance_sante_km": 12.33, "sante_nom": "CH LAON", "sante_categorie": "Centre Hospitalier (C.H.)", "statut": "aucun"}, {"code_insee": "02219", "nom": "Coucy-la-Ville", "cp": 2380, "departement": 2, "lat": 49.5414, "lon": 3.3413, "population": 194, "dist_lambersart_km": 157.7, "temps_lambersart_min": 114.0, "littoral": "non", "prix_m2": 1647.0, "nb_ventes": 8.0, "distance_sante_km": 8.55, "sante_nom": "SSR JACQUES FICHEUX SAINT-GOBAIN", "sante_categorie": "Centre Hospitalier (C.H.)", "statut": "aucun"}, {"code_insee": "02220", "nom": "Coulonges-Cohan", "cp": 2130, "departement": 2, "lat": 49.1958, "lon": 3.6238, "population": 443, "dist_lambersart_km": 239.9, "temps_lambersart_min": 158.0, "littoral": "non", "prix_m2": 1569.0, "nb_ventes": 45.0, "distance_sante_km": 12.9, "sante_nom": "CENTRE HOSPITALIER DE FISMES", "sante_categorie": "Centre Hospitalier (C.H.)", "statut": "aucun"}, {"code_insee": "02221", "nom": "Coupru", "cp": 2310, "departement": 2, "lat": 49.0304, "lon": 3.2749, "population": 161, "dist_lambersart_km": 267.9, "temps_lambersart_min": 176.0, "littoral": "non", "prix_m2": 2198.0, "nb_ventes": 11.0, "distance_sante_km": 9.93, "sante_nom": "CH CHÂTEAU-THIERRY", "sante_categorie": "Centre Hospitalier (C.H.)", "statut": "aucun"}, {"code_insee": "02222", "nom": "Courbes", "cp": 2800, "departement": 2, "lat": 49.6804, "lon": 3.4567, "population": 39, "dist_lambersart_km": 137.9, "temps_lambersart_min": 94.0, "littoral": "non", "prix_m2": null, "nb_ventes": 3.0, "distance_sante_km": 7.22, "sante_nom": "CH LA FÈRE", "sante_categorie": "Centre Hospitalier (C.H.)", "statut": "aucun"}, {"code_insee": "02223", "nom": "Courboin", "cp": 2330, "departement": 2, "lat": 48.9956, "lon": 3.5127, "population": 304, "dist_lambersart_km": 256.0, "temps_lambersart_min": 178.0, "littoral": "non", "prix_m2": 1345.0, "nb_ventes": 21.0, "distance_sante_km": 9.69, "sante_nom": "CH CHÂTEAU-THIERRY", "sante_categorie": "Centre Hospitalier (C.H.)", "statut": "aucun"}, {"code_insee": "02224", "nom": "Courcelles-sur-Vesle", "cp": 2220, "departement": 2, "lat": 49.3464, "lon": 3.576, "population": 352, "dist_lambersart_km": 196.0, "temps_lambersart_min": 145.0, "littoral": "non", "prix_m2": 1562.0, "nb_ventes": 11.0, "distance_sante_km": 8.69, "sante_nom": "CENTRE HOSPITALIER DE FISMES", "sante_categorie": "Centre Hospitalier (C.H.)", "statut": "aucun"}, {"code_insee": "02225", "nom": "Courchamps", "cp": 2810, "departement": 2, "lat": 49.1152, "lon": 3.261, "population": 82, "dist_lambersart_km": 208.7, "temps_lambersart_min": 168.0, "littoral": "non", "prix_m2": 1396.0, "nb_ventes": 13.0, "distance_sante_km": 12.87, "sante_nom": "CH CHÂTEAU-THIERRY", "sante_categorie": "Centre Hospitalier (C.H.)", "statut": "aucun"}, {"code_insee": "02226", "nom": "Courmelles", "cp": 2200, "departement": 2, "lat": 49.3456, "lon": 3.2994, "population": 1808, "dist_lambersart_km": 179.3, "temps_lambersart_min": 141.0, "littoral": "non", "prix_m2": 1662.0, "nb_ventes": 94.0, "distance_sante_km": 3.86, "sante_nom": "CH SOISSONS", "sante_categorie": "Centre Hospitalier (C.H.)", "statut": "aucun"}, {"code_insee": "02227", "nom": "Courmont", "cp": 2130, "departement": 2, "lat": 49.1411, "lon": 3.5712, "population": 126, "dist_lambersart_km": 243.5, "temps_lambersart_min": 165.0, "littoral": "non", "prix_m2": 1568.0, "nb_ventes": 10.0, "distance_sante_km": 15.48, "sante_nom": "CH CHÂTEAU-THIERRY", "sante_categorie": "Centre Hospitalier (C.H.)", "statut": "aucun"}, {"code_insee": "02228", "nom": "Courtemont-Varennes", "cp": 2850, "departement": 2, "lat": 49.0719, "lon": 3.5414, "population": 361, "dist_lambersart_km": 249.0, "temps_lambersart_min": 167.0, "littoral": "non", "prix_m2": 1500.0, "nb_ventes": 15.0, "distance_sante_km": 9.89, "sante_nom": "CH CHÂTEAU-THIERRY", "sante_categorie": "Centre Hospitalier (C.H.)", "statut": "aucun"}, {"code_insee": "02229", "nom": "Courtrizy-et-Fussigny", "cp": 2820, "departement": 2, "lat": 49.5152, "lon": 3.7953, "population": 78, "dist_lambersart_km": 173.2, "temps_lambersart_min": 119.0, "littoral": "non", "prix_m2": null, "nb_ventes": 3.0, "distance_sante_km": 14.38, "sante_nom": "CH LAON", "sante_categorie": "Centre Hospitalier (C.H.)", "statut": "aucun"}, {"code_insee": "02230", "nom": "Couvrelles", "cp": 2220, "departement": 2, "lat": 49.3328, "lon": 3.485, "population": 174, "dist_lambersart_km": 198.8, "temps_lambersart_min": 146.0, "littoral": "non", "prix_m2": 1693.0, "nb_ventes": 8.0, "distance_sante_km": 11.59, "sante_nom": "CH SOISSONS", "sante_categorie": "Centre Hospitalier (C.H.)", "statut": "aucun"}, {"code_insee": "02231", "nom": "Couvron-et-Aumencourt", "cp": 2270, "departement": 2, "lat": 49.6464, "lon": 3.515, "population": 926, "dist_lambersart_km": 145.3, "temps_lambersart_min": 102.0, "littoral": "non", "prix_m2": 1402.0, "nb_ventes": 34.0, "distance_sante_km": 8.71, "sante_nom": "SSR JACQUES FICHEUX SAINT-GOBAIN", "sante_categorie": "Centre Hospitalier (C.H.)", "statut": "aucun"}, {"code_insee": "02232", "nom": "Coyolles", "cp": 2600, "departement": 2, "lat": 49.216, "lon": 3.021, "population": 366, "dist_lambersart_km": 195.4, "temps_lambersart_min": 143.0, "littoral": "non", "prix_m2": 2250.0, "nb_ventes": 17.0, "distance_sante_km": 9.8, "sante_nom": "HL CRÉPY-EN-VALOIS", "sante_categorie": "Centre hospitalier, ex Hôpital local", "statut": "aucun"}, {"code_insee": "02233", "nom": "Cramaille", "cp": 2130, "departement": 2, "lat": 49.2269, "lon": 3.4555, "population": 127, "dist_lambersart_km": 198.8, "temps_lambersart_min": 156.0, "littoral": "non", "prix_m2": 1333.0, "nb_ventes": 9.0, "distance_sante_km": 18.2, "sante_nom": "CH SOISSONS", "sante_categorie": "Centre Hospitalier (C.H.)", "statut": "aucun"}, {"code_insee": "02234", "nom": "Craonne", "cp": 2160, "departement": 2, "lat": 49.4491, "lon": 3.7947, "population": 84, "dist_lambersart_km": 179.5, "temps_lambersart_min": 125.0, "littoral": "non", "prix_m2": 1278.0, "nb_ventes": 6.0, "distance_sante_km": 17.97, "sante_nom": "CENTRE HOSPITALIER DE FISMES", "sante_categorie": "Centre Hospitalier (C.H.)", "statut": "aucun"}, {"code_insee": "02235", "nom": "Craonnelle", "cp": 2160, "departement": 2, "lat": 49.4251, "lon": 3.7755, "population": 119, "dist_lambersart_km": 183.3, "temps_lambersart_min": 132.0, "littoral": "non", "prix_m2": 1629.0, "nb_ventes": 6.0, "distance_sante_km": 14.96, "sante_nom": "CENTRE HOSPITALIER DE FISMES", "sante_categorie": "Centre Hospitalier (C.H.)", "statut": "aucun"}, {"code_insee": "02236", "nom": "Crécy-au-Mont", "cp": 2380, "departement": 2, "lat": 49.4846, "lon": 3.3141, "population": 335, "dist_lambersart_km": 161.8, "temps_lambersart_min": 121.0, "littoral": "non", "prix_m2": 1222.0, "nb_ventes": 21.0, "distance_sante_km": 12.74, "sante_nom": "CH SOISSONS", "sante_categorie": "Centre Hospitalier (C.H.)", "statut": "aucun"}, {"code_insee": "02237", "nom": "Crécy-sur-Serre", "cp": 2270, "departement": 2, "lat": 49.693, "lon": 3.6188, "population": 1472, "dist_lambersart_km": 149.7, "temps_lambersart_min": 106.0, "littoral": "non", "prix_m2": 961.0, "nb_ventes": 56.0, "distance_sante_km": 14.39, "sante_nom": "CH LAON", "sante_categorie": "Centre Hospitalier (C.H.)", "statut": "aucun"}, {"code_insee": "02238", "nom": "Crépy", "cp": 2870, "departement": 2, "lat": 49.6089, "lon": 3.5088, "population": 1812, "dist_lambersart_km": 151.4, "temps_lambersart_min": 107.0, "littoral": "non", "prix_m2": 1374.0, "nb_ventes": 65.0, "distance_sante_km": 6.62, "sante_nom": "SSR JACQUES FICHEUX SAINT-GOBAIN", "sante_categorie": "Centre Hospitalier (C.H.)", "statut": "aucun"}, {"code_insee": "02239", "nom": "Crézancy", "cp": 2650, "departement": 2, "lat": 49.0405, "lon": 3.5169, "population": 1166, "dist_lambersart_km": 254.2, "temps_lambersart_min": 173.0, "littoral": "non", "prix_m2": 1816.0, "nb_ventes": 62.0, "distance_sante_km": 7.91, "sante_nom": "CH CHÂTEAU-THIERRY", "sante_categorie": "Centre Hospitalier (C.H.)", "statut": "aucun"}, {"code_insee": "02240", "nom": "Croix-Fonsomme", "cp": 2110, "departement": 2, "lat": 49.9329, "lon": 3.3937, "population": 183, "dist_lambersart_km": 114.3, "temps_lambersart_min": 92.0, "littoral": "non", "prix_m2": 961.0, "nb_ventes": 8.0, "distance_sante_km": 11.98, "sante_nom": "CPEF CH SAINT-QUENTIN", "sante_categorie": "Centre Hospitalier (C.H.)", "statut": "aucun"}, {"code_insee": "02241", "nom": "La Croix-sur-Ourcq", "cp": 2210, "departement": 2, "lat": 49.1589, "lon": 3.3502, "population": 87, "dist_lambersart_km": 201.5, "temps_lambersart_min": 158.0, "littoral": "non", "prix_m2": 1456.0, "nb_ventes": 8.0, "distance_sante_km": 12.77, "sante_nom": "CH CHÂTEAU-THIERRY", "sante_categorie": "Centre Hospitalier (C.H.)", "statut": "aucun"}, {"code_insee": "02242", "nom": "Crouttes-sur-Marne", "cp": 2310, "departement": 2, "lat": 48.9775, "lon": 3.247, "population": 591, "dist_lambersart_km": 243.2, "temps_lambersart_min": 185.0, "littoral": "non", "prix_m2": 1376.0, "nb_ventes": 30.0, "distance_sante_km": 14.23, "sante_nom": "CH CHÂTEAU-THIERRY", "sante_categorie": "Centre Hospitalier (C.H.)", "statut": "aucun"}, {"code_insee": "02243", "nom": "Crouy", "cp": 2880, "departement": 2, "lat": 49.4073, "lon": 3.3684, "population": 3049, "dist_lambersart_km": 188.1, "temps_lambersart_min": 127.0, "littoral": "non", "prix_m2": 1743.0, "nb_ventes": 141.0, "distance_sante_km": 4.68, "sante_nom": "CH SOISSONS", "sante_categorie": "Centre Hospitalier (C.H.)", "statut": "labelisable"}, {"code_insee": "02244", "nom": "Crupilly", "cp": 2120, "departement": 2, "lat": 49.9299, "lon": 3.7555, "population": 64, "dist_lambersart_km": 118.6, "temps_lambersart_min": 109.0, "littoral": "non", "prix_m2": null, "nb_ventes": null, "distance_sante_km": 8.87, "sante_nom": "CH GUISE", "sante_categorie": "Centre Hospitalier (C.H.)", "statut": "aucun"}, {"code_insee": "02245", "nom": "Cuffies", "cp": 2880, "departement": 2, "lat": 49.4086, "lon": 3.3197, "population": 1733, "dist_lambersart_km": 173.4, "temps_lambersart_min": 130.0, "littoral": "non", "prix_m2": 1703.0, "nb_ventes": 84.0, "distance_sante_km": 4.35, "sante_nom": "CH SOISSONS", "sante_categorie": "Centre Hospitalier (C.H.)", "statut": "labelisable"}, {"code_insee": "02246", "nom": "Cugny", "cp": 2480, "departement": 2, "lat": 49.7097, "lon": 3.1518, "population": 607, "dist_lambersart_km": 138.7, "temps_lambersart_min": 101.0, "littoral": "non", "prix_m2": 1230.0, "nb_ventes": 38.0, "distance_sante_km": 6.07, "sante_nom": "CH HAM", "sante_categorie": "Centre Hospitalier (C.H.)", "statut": "aucun"}, {"code_insee": "02248", "nom": "Cuirieux", "cp": 2350, "departement": 2, "lat": 49.6835, "lon": 3.8206, "population": 152, "dist_lambersart_km": 171.0, "temps_lambersart_min": 121.0, "littoral": "non", "prix_m2": 1063.0, "nb_ventes": 12.0, "distance_sante_km": 17.6, "sante_nom": "CH VERVINS", "sante_categorie": "Centre Hospitalier (C.H.)", "statut": "aucun"}, {"code_insee": "02249", "nom": "Cuiry-Housse", "cp": 2220, "departement": 2, "lat": 49.2886, "lon": 3.4903, "population": 102, "dist_lambersart_km": 199.7, "temps_lambersart_min": 149.0, "littoral": "non", "prix_m2": 963.0, "nb_ventes": 7.0, "distance_sante_km": 13.78, "sante_nom": "CENTRE HOSPITALIER DE FISMES", "sante_categorie": "Centre Hospitalier (C.H.)", "statut": "aucun"}, {"code_insee": "02250", "nom": "Cuiry-lès-Chaudardes", "cp": 2160, "departement": 2, "lat": 49.3919, "lon": 3.7621, "population": 84, "dist_lambersart_km": 197.3, "temps_lambersart_min": 134.0, "littoral": "non", "prix_m2": 1712.0, "nb_ventes": 5.0, "distance_sante_km": 11.28, "sante_nom": "CENTRE HOSPITALIER DE FISMES", "sante_categorie": "Centre Hospitalier (C.H.)", "statut": "aucun"}, {"code_insee": "02251", "nom": "Cuiry-lès-Iviers", "cp": 2360, "departement": 2, "lat": 49.7661, "lon": 4.1045, "population": 28, "dist_lambersart_km": 198.9, "temps_lambersart_min": 151.0, "littoral": "non", "prix_m2": 1117.0, "nb_ventes": 8.0, "distance_sante_km": 16.32, "sante_nom": "CH VERVINS", "sante_categorie": "Centre Hospitalier (C.H.)", "statut": "aucun"}, {"code_insee": "02252", "nom": "Cuissy-et-Geny", "cp": 2160, "departement": 2, "lat": 49.4013, "lon": 3.7056, "population": 72, "dist_lambersart_km": 202.5, "temps_lambersart_min": 139.0, "littoral": "non", "prix_m2": null, "nb_ventes": null, "distance_sante_km": 10.76, "sante_nom": "CENTRE HOSPITALIER DE FISMES", "sante_categorie": "Centre Hospitalier (C.H.)", "statut": "aucun"}, {"code_insee": "02253", "nom": "Cuisy-en-Almont", "cp": 2200, "departement": 2, "lat": 49.422, "lon": 3.2452, "population": 361, "dist_lambersart_km": 168.8, "temps_lambersart_min": 128.0, "littoral": "non", "prix_m2": 1600.0, "nb_ventes": 21.0, "distance_sante_km": 8.67, "sante_nom": "CH SOISSONS", "sante_categorie": "Centre Hospitalier (C.H.)", "statut": "aucun"}, {"code_insee": "02254", "nom": "Cutry", "cp": 2600, "departement": 2, "lat": 49.345, "lon": 3.1907, "population": 126, "dist_lambersart_km": 180.8, "temps_lambersart_min": 142.0, "littoral": "non", "prix_m2": 1949.0, "nb_ventes": 15.0, "distance_sante_km": 10.88, "sante_nom": "CH SOISSONS", "sante_categorie": "Centre Hospitalier (C.H.)", "statut": "aucun"}, {"code_insee": "02255", "nom": "Cys-la-Commune", "cp": 2220, "departement": 2, "lat": 49.3838, "lon": 3.5717, "population": 161, "dist_lambersart_km": 189.1, "temps_lambersart_min": 141.0, "littoral": "non", "prix_m2": 1011.0, "nb_ventes": 6.0, "distance_sante_km": 11.61, "sante_nom": "CENTRE HOSPITALIER DE FISMES", "sante_categorie": "Centre Hospitalier (C.H.)", "statut": "aucun"}, {"code_insee": "02256", "nom": "Dagny-Lambercy", "cp": 2140, "departement": 2, "lat": 49.7685, "lon": 4.0437, "population": 123, "dist_lambersart_km": 195.3, "temps_lambersart_min": 147.0, "littoral": "non", "prix_m2": 747.0, "nb_ventes": 15.0, "distance_sante_km": 12.4, "sante_nom": "CH VERVINS", "sante_categorie": "Centre Hospitalier (C.H.)", "statut": "aucun"}, {"code_insee": "02257", "nom": "Dallon", "cp": 2680, "departement": 2, "lat": 49.8249, "lon": 3.2327, "population": 424, "dist_lambersart_km": 116.9, "temps_lambersart_min": 83.0, "littoral": "non", "prix_m2": 1624.0, "nb_ventes": 23.0, "distance_sante_km": 4.32, "sante_nom": "CENTRE PSYCHOTHÉRAPIE CH ST QUENTIN", "sante_categorie": "Centre Hospitalier (C.H.)", "statut": "aucun"}, {"code_insee": "02258", "nom": "Dammard", "cp": 2470, "departement": 2, "lat": 49.146, "lon": 3.1723, "population": 378, "dist_lambersart_km": 203.6, "temps_lambersart_min": 159.0, "littoral": "non", "prix_m2": 1884.0, "nb_ventes": 19.0, "distance_sante_km": 20.12, "sante_nom": "CH CHÂTEAU-THIERRY", "sante_categorie": "Centre Hospitalier (C.H.)", "statut": "aucun"}, {"code_insee": "02259", "nom": "Dampleux", "cp": 2600, "departement": 2, "lat": 49.2408, "lon": 3.1471, "population": 370, "dist_lambersart_km": 194.6, "temps_lambersart_min": 147.0, "littoral": "non", "prix_m2": 1793.0, "nb_ventes": 25.0, "distance_sante_km": 18.72, "sante_nom": "HL CRÉPY-EN-VALOIS", "sante_categorie": "Centre hospitalier, ex Hôpital local", "statut": "aucun"}, {"code_insee": "02260", "nom": "Danizy", "cp": 2800, "departement": 2, "lat": 49.6658, "lon": 3.4037, "population": 609, "dist_lambersart_km": 143.3, "temps_lambersart_min": 100.0, "littoral": "non", "prix_m2": 1154.0, "nb_ventes": 32.0, "distance_sante_km": 3.15, "sante_nom": "CH LA FÈRE", "sante_categorie": "Centre Hospitalier (C.H.)", "statut": "aucun"}, {"code_insee": "02261", "nom": "Dercy", "cp": 2270, "departement": 2, "lat": 49.7127, "lon": 3.6847, "population": 392, "dist_lambersart_km": 156.7, "temps_lambersart_min": 116.0, "littoral": "non", "prix_m2": 1019.0, "nb_ventes": 25.0, "distance_sante_km": 17.4, "sante_nom": "CH LAON", "sante_categorie": "Centre Hospitalier (C.H.)", "statut": "aucun"}, {"code_insee": "02262", "nom": "Deuillet", "cp": 2700, "departement": 2, "lat": 49.6271, "lon": 3.3571, "population": 208, "dist_lambersart_km": 149.6, "temps_lambersart_min": 102.0, "littoral": "non", "prix_m2": 1529.0, "nb_ventes": 17.0, "distance_sante_km": 4.03, "sante_nom": "CH LA FÈRE", "sante_categorie": "Centre Hospitalier (C.H.)", "statut": "aucun"}, {"code_insee": "02263", "nom": "Dhuizel", "cp": 2220, "departement": 2, "lat": 49.3591, "lon": 3.6148, "population": 114, "dist_lambersart_km": 187.4, "temps_lambersart_min": 140.0, "littoral": "non", "prix_m2": null, "nb_ventes": 4.0, "distance_sante_km": 7.5, "sante_nom": "CENTRE HOSPITALIER DE FISMES", "sante_categorie": "Centre Hospitalier (C.H.)", "statut": "aucun"}, {"code_insee": "02264", "nom": "Dizy-le-Gros", "cp": 2340, "departement": 2, "lat": 49.6351, "lon": 4.0171, "population": 717, "dist_lambersart_km": 188.3, "temps_lambersart_min": 135.0, "littoral": "non", "prix_m2": 882.0, "nb_ventes": 40.0, "distance_sante_km": 23.43, "sante_nom": "CH VERVINS", "sante_categorie": "Centre Hospitalier (C.H.)", "statut": "aucun"}, {"code_insee": "02265", "nom": "Dohis", "cp": 2360, "departement": 2, "lat": 49.766, "lon": 4.1421, "population": 84, "dist_lambersart_km": 161.1, "temps_lambersart_min": 151.0, "littoral": "non", "prix_m2": 952.0, "nb_ventes": 10.0, "distance_sante_km": 18.33, "sante_nom": "CH HIRSON", "sante_categorie": "Centre Hospitalier (C.H.)", "statut": "aucun"}, {"code_insee": "02266", "nom": "Dolignon", "cp": 2360, "departement": 2, "lat": 49.7295, "lon": 4.0873, "population": 30, "dist_lambersart_km": 195.3, "temps_lambersart_min": 145.0, "littoral": "non", "prix_m2": 1919.0, "nb_ventes": 5.0, "distance_sante_km": 17.56, "sante_nom": "CH VERVINS", "sante_categorie": "Centre Hospitalier (C.H.)", "statut": "aucun"}, {"code_insee": "02267", "nom": "Dommiers", "cp": 2600, "departement": 2, "lat": 49.3314, "lon": 3.2165, "population": 287, "dist_lambersart_km": 185.0, "temps_lambersart_min": 142.0, "littoral": "non", "prix_m2": 2136.0, "nb_ventes": 17.0, "distance_sante_km": 9.68, "sante_nom": "CH SOISSONS", "sante_categorie": "Centre Hospitalier (C.H.)", "statut": "aucun"}, {"code_insee": "02268", "nom": "Domptin", "cp": 2310, "departement": 2, "lat": 49.0151, "lon": 3.2705, "population": 654, "dist_lambersart_km": 269.7, "temps_lambersart_min": 180.0, "littoral": "non", "prix_m2": 1848.0, "nb_ventes": 46.0, "distance_sante_km": 10.74, "sante_nom": "CH CHÂTEAU-THIERRY", "sante_categorie": "Centre Hospitalier (C.H.)", "statut": "aucun"}, {"code_insee": "02269", "nom": "Dorengt", "cp": 2450, "departement": 2, "lat": 49.9656, "lon": 3.7014, "population": 148, "dist_lambersart_km": 110.0, "temps_lambersart_min": 103.0, "littoral": "non", "prix_m2": 986.0, "nb_ventes": 8.0, "distance_sante_km": 7.65, "sante_nom": "CH LE NOUVION-EN-THIÉRACHE", "sante_categorie": "Centre Hospitalier (C.H.)", "statut": "aucun"}, {"code_insee": "02270", "nom": "Douchy", "cp": 2590, "departement": 2, "lat": 49.7959, "lon": 3.1296, "population": 153, "dist_lambersart_km": 123.8, "temps_lambersart_min": 93.0, "littoral": "non", "prix_m2": 1081.0, "nb_ventes": 13.0, "distance_sante_km": 6.74, "sante_nom": "CH HAM", "sante_categorie": "Centre Hospitalier (C.H.)", "statut": "aucun"}, {"code_insee": "02271", "nom": "Dravegny", "cp": 2130, "departement": 2, "lat": 49.2425, "lon": 3.6395, "population": 134, "dist_lambersart_km": 202.6, "temps_lambersart_min": 159.0, "littoral": "non", "prix_m2": 1845.0, "nb_ventes": 15.0, "distance_sante_km": 7.63, "sante_nom": "CENTRE HOSPITALIER DE FISMES", "sante_categorie": "Centre Hospitalier (C.H.)", "statut": "aucun"}, {"code_insee": "02272", "nom": "Droizy", "cp": 2210, "departement": 2, "lat": 49.2746, "lon": 3.3864, "population": 75, "dist_lambersart_km": 189.5, "temps_lambersart_min": 148.0, "littoral": "non", "prix_m2": 965.0, "nb_ventes": 10.0, "distance_sante_km": 11.32, "sante_nom": "CH SOISSONS", "sante_categorie": "Centre Hospitalier (C.H.)", "statut": "aucun"}, {"code_insee": "02273", "nom": "Dury", "cp": 2480, "departement": 2, "lat": 49.7516, "lon": 3.1322, "population": 191, "dist_lambersart_km": 130.9, "temps_lambersart_min": 97.0, "littoral": "non", "prix_m2": 1421.0, "nb_ventes": 7.0, "distance_sante_km": 3.56, "sante_nom": "CH HAM", "sante_categorie": "Centre Hospitalier (C.H.)", "statut": "aucun"}, {"code_insee": "02274", "nom": "Ébouleau", "cp": 2350, "departement": 2, "lat": 49.6783, "lon": 3.8871, "population": 164, "dist_lambersart_km": 174.3, "temps_lambersart_min": 125.0, "littoral": "non", "prix_m2": 750.0, "nb_ventes": 10.0, "distance_sante_km": 17.17, "sante_nom": "CH VERVINS", "sante_categorie": "Centre Hospitalier (C.H.)", "statut": "aucun"}, {"code_insee": "02275", "nom": "Effry", "cp": 2500, "departement": 2, "lat": 49.9191, "lon": 3.9879, "population": 307, "dist_lambersart_km": 132.7, "temps_lambersart_min": 122.0, "littoral": "non", "prix_m2": 700.0, "nb_ventes": 11.0, "distance_sante_km": 6.23, "sante_nom": "CH HIRSON", "sante_categorie": "Centre Hospitalier (C.H.)", "statut": "aucun"}, {"code_insee": "02276", "nom": "Englancourt", "cp": 2260, "departement": 2, "lat": 49.9251, "lon": 3.8081, "population": 122, "dist_lambersart_km": 120.7, "temps_lambersart_min": 113.0, "littoral": "non", "prix_m2": 1248.0, "nb_ventes": 11.0, "distance_sante_km": 9.92, "sante_nom": "CH LE NOUVION-EN-THIÉRACHE", "sante_categorie": "Centre Hospitalier (C.H.)", "statut": "aucun"}, {"code_insee": "02277", "nom": "Épagny", "cp": 2290, "departement": 2, "lat": 49.4729, "lon": 3.2565, "population": 337, "dist_lambersart_km": 160.9, "temps_lambersart_min": 118.0, "littoral": "non", "prix_m2": 1573.0, "nb_ventes": 23.0, "distance_sante_km": 12.71, "sante_nom": "CH SOISSONS", "sante_categorie": "Centre Hospitalier (C.H.)", "statut": "aucun"}, {"code_insee": "02278", "nom": "Éparcy", "cp": 2500, "departement": 2, "lat": 49.8853, "lon": 4.071, "population": 38, "dist_lambersart_km": 142.0, "temps_lambersart_min": 136.0, "littoral": "non", "prix_m2": null, "nb_ventes": 3.0, "distance_sante_km": 4.39, "sante_nom": "CH HIRSON", "sante_categorie": "Centre Hospitalier (C.H.)", "statut": "aucun"},